location,city,country,pollutant,value,timestamp,unit,source_name,latitude,longitude,averaged_over_in_hours
MOBILE-KICKAPOO,LINCOLN,US,pm10,7.0,2017-01-18 16:00:00 UTC,µg/m³,AirNow,35.4884,-97.09028,1.0
Oxford St Ebbes,Oxford,GB,no2,30.0,2020-04-07 20:00:00 UTC,µg/m³,DEFRA,51.744803999999995,-1.260278,1.0
BROADWAY (South),St. Louis,US,pm25,6.1,2020-04-07 19:00:00 UTC,µg/m³,AirNow,38.5425,-90.26361,1.0
"Deen Dayal Nagar, Sagar - MPPCB",Sagar,IN,pm25,23.67,2020-04-07 18:30:00 UTC,µg/m³,caaqm,23.864016,78.80289499999999,0.25
Manglerud,Oslo,NO,pm10,27.06,2020-04-07 20:00:00 UTC,µg/m³,Norway,59.89869,10.81495,1.0
Tiverton,ONTARIO,CA,o3,0.037000000000000005,2020-04-07 19:00:00 UTC,ppm,AirNow,44.2994,-81.5753,1.0
Berea BOE,Cleveland-Elyria-Mentor,US,o3,0.046,2020-04-07 20:00:00 UTC,ppm,AirNow,41.36189,-81.86461,1.0
Hull (Ile),QUEBEC,CA,o3,0.045,2020-04-07 19:00:00 UTC,ppm,AirNow,45.4369,-75.7261,1.0
Arcos,Arcos De La Frontera,ES,so2,1.0,2018-10-12 21:30:00 UTC,µg/m³,Andalucia,36.73975,-5.7437224,24.0
PC South Girard Scho,Columbus,US,pm25,13.0,2020-03-01 05:00:00 UTC,µg/m³,AirNow,32.437027,-84.99965999999999,1.0
Lake Ahquabi,Des Moines,US,o3,0.024,2017-06-14 11:00:00 UTC,ppm,AirNow,41.2853,-93.5839,1.0
Murphy Ridge,Evanston,US,o3,0.048,2020-04-07 20:00:00 UTC,ppm,AirNow,41.3694,-111.0419,1.0
Wicken Fen,Wicken Fen,GB,o3,93.0,2020-04-07 20:00:00 UTC,µg/m³,DEFRA,52.2985,0.290917,8.0
Duluth-WDSE,Duluth,US,pm25,9.0,2020-04-07 20:00:00 UTC,µg/m³,AirNow,46.8183,-92.0892,1.0
Blaine,Minneapolis-St. Paul-Bloomington,US,pm10,8.0,2020-04-07 20:00:00 UTC,µg/m³,AirNow,45.1425,-93.2139,1.0
Stockton - Hazelton,Stockton,US,no2,0.004,2020-04-07 19:00:00 UTC,ppm,AirNow,37.95075,-121.26897,1.0
"Talcher Coalfields,Talcher - OSPCB",Talcher,IN,no2,7.49,2020-04-07 20:45:00 UTC,µg/m³,caaqm,20.936071,85.1707,0.25
Honolulu,Honolulu,US,co,0.3,2020-04-07 19:00:00 UTC,ppm,AirNow,21.3103,-157.8581,1.0
Dos Hermanas,Dos Hermanas,ES,so2,8.0,2018-10-12 22:00:00 UTC,µg/m³,Andalucia,37.284485,-5.9138417,24.0
"Bangna, Bangna",Bangkok,TH,o3,0.019,2020-04-02 03:00:00 UTC,ppm,Thailand,13.666116,100.60574,1.0
Ironton - ODOT,Portsmouth,US,pm25,0.1,2020-04-07 11:00:00 UTC,µg/m³,AirNow,38.508114,-82.6593,1.0
ES1593A,Cádiz,ES,co,9.0,2018-01-27 00:00:00 UTC,µg/m³,EEA Spain,36.46059,-6.203069999999999,1.0
Tsawwassen,BRITISH COLUMBIA,CA,pm25,4.0,2020-04-07 20:00:00 UTC,µg/m³,AirNow,49.00987,-123.082016,1.0
Kardemir 2,Karabük,TR,no2,50.0,2018-10-13 21:00:00 UTC,µg/m³,Turkey,41.193515999999995,32.627686,1.0
Hollister AMS,San Jose-Sunnyvale-Santa Clara,US,o3,0.032,2020-04-01 15:00:00 UTC,ppm,AirNow,36.843426,-121.3621,1.0
"Sector-2 Industrial Area, Pithampur - MPPCB",Plot no.- 57,IN,no2,7.7,2020-04-07 21:00:00 UTC,µg/m³,caaqm,22.624758,75.67524,0.25
Linkou,新北市,TW,so2,0.0008,2020-04-07 21:00:00 UTC,ppm,Taiwan,25.078570000000003,121.3657,1.0
Nezahualcóyotl,MEXICO STATE,MX,no2,0.006999999999999999,2020-04-07 19:00:00 UTC,ppm,AirNow,19.3919,-99.0281,1.0
"Moti Doongri, Alwar - RSPCB",Alwar - Jaipur Rd,IN,o3,5.69,2020-04-07 21:00:00 UTC,µg/m³,caaqm,27.554792,76.61153399999999,0.25
"MIDC Khutala, Chandrapur - MPCB",Chandrapur,IN,pm10,69.13,2020-04-07 21:00:00 UTC,µg/m³,caaqm,19.977529999999998,79.23371,0.25
BRAIDWD,Chicago-Naperville-Joliet,US,o3,0.045,2020-04-07 19:00:00 UTC,ppm,AirNow,41.2222,-88.1906,1.0
Opole manualna 4,Opole,PL,bc,0.5836,2020-04-07 21:00:00 UTC,µg/m³,GIOS,50.676857,17.950277,
MILWAUKEE SER DNR,Milwaukee-Waukesha-West Allis,US,no2,0.004,2020-04-07 20:00:00 UTC,ppm,AirNow,43.0611,-87.9125,1.0
Edmonton South,ALBERTA,CA,o3,0.05,2020-04-07 19:00:00 UTC,ppm,AirNow,53.5028,-113.6111,1.0
Mitrovice,Mitrovice,XK,pm10,24.414,2020-04-07 21:00:00 UTC,µg/m³,Kosovo,42.891791999999995,20.868937,1.0
East Liverpool,East Liverpool-Salem,US,so2,0.001,2020-04-07 20:00:00 UTC,ppm,AirNow,40.631972999999995,-80.54729499999999,1.0
Linyuan,KaoPing,TW,co,0.35,2020-04-07 21:00:00 UTC,ppm,Taiwan,22.4795,120.41175,1.0
Can-MTHM,Çanakkale,TR,pm10,42.0,2018-10-13 20:00:00 UTC,µg/m³,Turkey,40.02925,27.0498,1.0
Lublin ul. Obywatelska,Lublin,PL,pm10,68.6,2020-04-07 21:00:00 UTC,µg/m³,GIOS,51.25943,22.569134,
Italy C1044,Dallas-Fort Worth-Arlington,US,pm25,5.8,2016-12-06 17:00:00 UTC,µg/m³,AirNow,32.1772,-96.8711,1.0
Santa Catarina,NUEVO LEON,MX,pm25,12.0,2016-11-03 19:00:00 UTC,µg/m³,AirNow,25.675,-100.45833,1.0
Thirty Third,Phoenix-Mesa-Scottsdale,US,pm25,-0.9,2020-04-07 19:00:00 UTC,µg/m³,AirNow,33.461807,-112.12804399999999,1.0
Copan,WASHINGTON,US,pm10,21.0,2020-04-07 20:00:00 UTC,µg/m³,AirNow,36.908115,-95.88235,1.0
BiałaP-Orzechowa,Biała Podlaska,PL,o3,50.15,2020-04-07 21:00:00 UTC,µg/m³,GIOS,52.029194,23.14939,
Oakland West,San Francisco-Oakland-Fremont,US,so2,0.001,2020-04-07 19:00:00 UTC,ppm,AirNow,37.8148,-122.2824,1.0
Zhongshan,North,TW,no2,0.039,2020-04-07 21:00:00 UTC,ppm,Taiwan,25.06236,121.52653000000001,1.0
Nygaardsgata,Fredrikstad,NO,no2,7.788621000000001,2020-04-07 20:00:00 UTC,µg/m³,Norway,59.210190000000004,10.940097,1.0
ES1792A,Huelva,ES,pm10,29.1,2020-04-07 09:00:00 UTC,µg/m³,EEA Spain,37.133790000000005,-6.80745,1.0
Congaree Bluff,Columbia,US,o3,0.037000000000000005,2020-04-07 20:00:00 UTC,ppm,AirNow,33.8147,-80.7811,1.0
FES Acatlán,MEXICO STATE,MX,o3,0.073,2020-04-07 19:00:00 UTC,ppm,AirNow,19.4824,-99.2435,1.0
SPARTAN - CITEDEF,Buenos Aires,AR,pm25,18.1,2015-04-15 00:00:00 UTC,µg/m³,Spartan,-34.56,-58.506,1.0
Underhill,Burlington-South Burlington,US,o3,0.049,2020-04-07 20:00:00 UTC,ppm,AirNow,44.52839,-72.86896999999999,1.0
"Peenya, Bengaluru - CPCB",Bengaluru,IN,so2,4.24,2020-04-07 20:45:00 UTC,µg/m³,caaqm,13.027019500000002,77.494095,0.25
"Moti Doongri, Alwar - RSPCB",Alwar - Jaipur Rd,IN,pm10,49.17,2020-04-07 21:00:00 UTC,µg/m³,caaqm,27.554792,76.61153399999999,0.25
Frosinone Mazzini,Frosinone,IT,so2,1.0,2020-04-04 22:00:00 UTC,µg/m³,ARPALAZIO,41.639668,13.348913,1.0
London Eltham,London,GB,no2,50.0,2020-04-07 20:00:00 UTC,µg/m³,DEFRA,51.45258,0.070766,1.0
Portland Cully Helen,Portland-Vancouver-Beaverton,US,pm25,3.9,2020-04-07 20:00:00 UTC,µg/m³,AirNow,45.562202,-122.57562,1.0
Hidden Valley,PINAL,US,pm25,2.0,2020-04-07 20:00:00 UTC,µg/m³,AirNow,32.88476,-112.03705,1.0
Batavia,Cincinnati-Middletown,US,pm25,7.2,2020-04-07 20:00:00 UTC,µg/m³,AirNow,39.0828,-84.1441,1.0
Near Road,BROWARD,US,bc,1.33,2020-04-07 15:00:00 UTC,µg/m³,AirNow,26.131256,-80.16785,1.0
Blaine,Minneapolis-St. Paul-Bloomington,US,so2,0.001,2020-04-07 20:00:00 UTC,ppm,AirNow,45.1425,-93.2139,1.0
Faro,Civitavecchia,IT,pm25,9.0,2020-03-30 22:00:00 UTC,µg/m³,ARPALAZIO,42.098904,11.817692,24.0
"Gangapur Road, Nashik - MPCB",Nashik,IN,co,290.0,2020-04-07 21:00:00 UTC,µg/m³,caaqm,20.007328,73.77624499999999,0.25
תחנה:עמיקם,גוש דן,IL,so2,0.0005,2019-04-03 21:00:00 UTC,ppm,Israel,32.04701,34.79258,0.25
Allumiere - v.Aldo Moro,Civitavecchia,IT,no2,2.0,2020-03-31 22:00:00 UTC,µg/m³,ARPALAZIO,42.160973,11.900022,1.0
CROUSE,Lincolnton,US,o3,0.054000000000000006,2020-04-07 19:00:00 UTC,ppm,AirNow,35.438557,-81.27675,1.0
WIOŚ Elbląg ul. Bażyńskiego,Elbląg,PL,bc,1.35986,2020-04-07 21:00:00 UTC,µg/m³,GIOS,54.167846999999995,19.410942000000002,
Toronto Downtown,,CA,pm25,10.0,2020-04-07 19:00:00 UTC,µg/m³,AirNow,43.64543,-79.38908,1.0
"Bollaram Industrial Area, Hyderabad - TSPCB",Hyderabad,IN,co,450.0,2020-04-07 21:00:00 UTC,µg/m³,caaqm,17.540892000000003,78.35853,0.25
SEAFORD,Seaford,US,pm25,11.1,2020-04-07 20:00:00 UTC,µg/m³,AirNow,38.6444,-75.6131,1.0
Roosvelt,DUCHESNE,US,no2,0.002,2020-04-07 19:00:00 UTC,ppm,AirNow,40.2943,-110.009,1.0
WEST OLIVE,OTTAWA,US,so2,0.001,2020-03-23 03:00:00 UTC,ppm,AirNow,42.923603,-86.19651999999999,1.0
"Gliwice, ul. Mewy 34",Gliwice,PL,so2,7.657839999999999,2020-04-07 21:00:00 UTC,µg/m³,GIOS,50.27948,18.655737,
Moheia Vest,Mo i Rana,NO,pm10,3.873914,2020-04-07 20:00:00 UTC,µg/m³,Norway,66.31219,14.149923000000001,1.0
Nisekh,Ulaanbaatar,MN,o3,26.0,2019-03-13 22:30:00 UTC,µg/m³,Agaar.mn,47.86394,106.77909,
"Udyogamandal, Eloor - Kerala PCB",Eloor,IN,pm10,56.77,2020-04-07 17:45:00 UTC,µg/m³,caaqm,10.073232,76.30276500000001,0.25
Tulsa,Tulsa,US,pm25,9.0,2020-04-07 20:00:00 UTC,µg/m³,AirNow,36.2067,-95.9764,1.0
תחנה:א.א.פחם,צפון הנגב,IL,o3,0.0117,2019-04-03 21:00:00 UTC,ppm,Israel,31.145020000000002,34.82837,0.25
Tucheng,North,TW,o3,0.032,2020-04-07 21:00:00 UTC,ppm,Taiwan,24.982529,121.45186000000001,1.0
Stoke-on-Trent Centre,Stoke-on-Trent,GB,pm10,16.0,2020-04-07 20:00:00 UTC,µg/m³,DEFRA,53.028209999999994,-2.175133,24.0
Allumiere,Roma,IT,o3,95.0,2020-04-04 22:00:00 UTC,µg/m³,ARPALAZIO,42.157740000000004,11.908744,1.0
Bottesford,Bottesford,GB,o3,39.0,2016-10-28 16:00:00 UTC,µg/m³,DEFRA,52.93028,-0.8147220000000001,8.0
Blaine,Minneapolis-St. Paul-Bloomington,US,no2,0.003,2020-04-07 20:00:00 UTC,ppm,AirNow,45.1425,-93.2139,1.0
PECK,Wichita,US,pm10,35.0,2020-04-07 20:00:00 UTC,µg/m³,AirNow,37.4769,-97.3664,1.0
Southwick Community,Louisville,US,pm25,3.0,2018-01-11 06:00:00 UTC,µg/m³,AirNow,38.2317,-85.8156,1.0
ES1741A,Las Palmas,ES,pm10,30.0,2019-04-11 00:00:00 UTC,µg/m³,EEA Spain,27.763653,-15.563851000000001,1.0
Cartuja,Jerez De La Frontera,ES,so2,5.0,2018-10-12 21:50:00 UTC,µg/m³,Andalucia,36.660862,-6.1144943,24.0
Yeniköy-MTHM,Kocaeli,TR,o3,46.0,2018-10-13 20:00:00 UTC,µg/m³,Turkey,40.70417,29.88448,1.0
Ho Chi Minh City,,VM,pm25,10.0,2020-04-07 19:00:00 UTC,µg/m³,AirNow,10.782772999999999,106.70003500000001,1.0
MOBILE - SANTA ANA,SANDOVAL,US,pm10,3.0,2019-11-21 14:00:00 UTC,µg/m³,AirNow,35.338406,-106.52429,1.0
SPARTAN - ITB Bandung,Bandung,ID,pm25,8.8,2015-09-13 01:00:00 UTC,µg/m³,Spartan,-6.888,107.61,1.0
HARRINGTON BCH,Milwaukee-Waukesha-West Allis,US,pm25,16.7,2020-04-07 20:00:00 UTC,µg/m³,AirNow,43.4981,-87.81,1.0
BAYVIEW,BEAUFORT,US,so2,0.0,2020-04-07 19:00:00 UTC,ppm,AirNow,35.428000000000004,-76.74,1.0
SPABC14 COBACH,BAJA CALIFORNIA NORTE,MX,co,0.3,2020-04-07 20:00:00 UTC,ppm,AirNow,32.6336,-115.5042,1.0
Senior Center,Phoenix-Mesa-Scottsdale,US,pm10,17.0,2020-04-07 20:00:00 UTC,µg/m³,AirNow,33.4883,-111.855,1.0
Dambadarjaa,Ulaanbaatar,MN,no2,28.0,2019-03-01 08:00:00 UTC,µg/m³,Agaar.mn,47.962982000000004,106.93216000000001,
Poznań - RatajeMOB,Poznań,PL,pm10,14.7672,2020-04-07 21:00:00 UTC,µg/m³,GIOS,52.391727,16.998576999999997,
Bakersfield-Muni,Bakersfield,US,o3,0.037000000000000005,2020-04-07 19:00:00 UTC,ppm,AirNow,35.3313,-119.0,1.0
"Końskie, MOBILNA",Końskie,PL,pm25,0.0,2018-12-21 13:00:00 UTC,µg/m³,GIOS,51.189526,20.408892,
"Na An, Mueang",Loei,TH,so2,0.017,2019-08-01 23:00:00 UTC,ppm,Thailand,13.763936,100.529076,1.0
Estación Facultad de,GUANAJUATO,MX,co,0.13,2018-07-03 16:00:00 UTC,ppm,AirNow,21.133894,-101.68025,1.0
Farrell,Youngstown-Warren-Boardman,US,o3,0.04,2020-04-07 17:00:00 UTC,ppm,AirNow,41.215,-80.485,1.0
La Casa NCORE - 4545,Denver-Aurora,US,o3,0.052000000000000005,2020-04-07 19:00:00 UTC,ppm,AirNow,39.7794,-105.00523000000001,1.0
Chico -  East,BUTTE,US,no2,0.002,2020-04-07 19:00:00 UTC,ppm,AirNow,39.76168,-121.84047,1.0
Lough Navar,Lough Navar,GB,o3,85.0,2020-04-07 20:00:00 UTC,µg/m³,DEFRA,54.43951,-7.900328,8.0
Soma,Manisa,TR,no2,29.0,2018-10-13 21:00:00 UTC,µg/m³,Turkey,39.181416,27.612913,1.0
Warszawa-Komunikacyjna,Warszawa,PL,bc,1.073,2020-04-07 20:00:00 UTC,µg/m³,GIOS,52.2193,21.004725,
"BTM Layout, Bengaluru - KSPCB",Bengaluru,IN,co,910.0,2018-02-22 03:00:00 UTC,µg/m³,CPCB,12.912811,77.60922,0.25
Erlin,Central,TW,pm10,37.0,2020-04-07 21:00:00 UTC,µg/m³,Taiwan,23.925175,120.40965,1.0
"Govt. High School Shikarpur, Patna - BSPCB",Patna,IN,co,830.0,2020-04-07 20:45:00 UTC,µg/m³,caaqm,25.592539000000002,85.22716,0.25
תחנה:ניידת6,תחנות ניידות,IL,so2,0.0007,2019-04-03 21:00:00 UTC,ppm,Israel,32.811009999999996,34.9981,0.25
Cedar Creek,GILMER,US,o3,0.048,2020-04-07 19:00:00 UTC,ppm,AirNow,38.8795,-80.8477,1.0
HICKORY,Hickory-Lenoir-Morganton,US,pm25,6.0,2020-04-07 19:00:00 UTC,µg/m³,AirNow,35.72889,-81.365555,1.0
Hukou,Chu-Miao,TW,co,0.23,2020-04-07 21:00:00 UTC,ppm,Taiwan,24.900143,121.03865,1.0
MIDAIR,Middlesborough,US,o3,0.046,2020-04-07 20:00:00 UTC,ppm,AirNow,36.6081,-83.7369,1.0
ROLAND,Fort Smith,US,o3,0.032,2020-04-07 20:00:00 UTC,ppm,AirNow,35.40814,-94.52441400000001,1.0
Colleferro-Oberdan,Roma,IT,co,300.0,2020-04-04 22:00:00 UTC,µg/m³,ARPALAZIO,41.73084,13.00435,1.0
"DRM Office Danapur, Patna - BSPCB",Patna,IN,o3,0.0,2020-04-06 17:15:00 UTC,µg/m³,caaqm,25.586561,85.04359000000001,0.25
"Kalal Majra, Khanna - PPCB",A.S. College,IN,co,0.0,2020-04-07 20:45:00 UTC,µg/m³,caaqm,30.736055,76.209694,0.25
Douliu,Yun-Chia-Nan,TW,o3,0.016,2020-04-07 21:00:00 UTC,ppm,Taiwan,23.711853,120.54498999999998,1.0
Matsu,連江縣,TW,no2,0.0092,2020-04-07 21:00:00 UTC,ppm,Taiwan,26.15361,119.9525,1.0
Limanköy-MTHM,Kırklareli,TR,o3,80.0,2018-10-13 20:00:00 UTC,µg/m³,Turkey,41.88515,28.05599,1.0
Våland,Stavanger,NO,pm10,14.237269,2020-04-07 20:00:00 UTC,µg/m³,Norway,58.96173,5.73147,1.0
Columbus - Franklin,Columbus,US,o3,0.013999999999999999,2017-11-03 09:00:00 UTC,ppm,AirNow,39.96523,-82.95549,1.0
Indpls - I-70 E,Indianapolis,US,pm25,9.2,2020-04-07 20:00:00 UTC,µg/m³,AirNow,39.787933,-86.13088,1.0
WIOŚ Ostróda Piłsudskiego,Ostróda,PL,o3,69.1544,2020-04-07 21:00:00 UTC,µg/m³,GIOS,53.694630000000004,19.968891,
Moshannon,DuBois,US,o3,0.040999999999999995,2020-04-07 20:00:00 UTC,ppm,AirNow,41.1175,-78.5261,1.0
Moheia Vest,Mo i Rana,NO,no2,11.825271,2019-01-02 08:00:00 UTC,µg/m³,Norway,66.31219,14.149923000000001,1.0
Boston-Von Hillern,SUFFOLK,US,no2,0.008,2020-04-07 19:00:00 UTC,ppm,AirNow,42.325195,-71.05605,1.0
Pleasanton - Owens C,San Francisco-Oakland-Fremont,US,co,0.32,2020-04-07 19:00:00 UTC,ppm,AirNow,37.70122,-121.90302,1.0
AM12 Kościerzyna Targowa,Kościerzyna,PL,o3,63.5478,2020-04-07 21:00:00 UTC,µg/m³,GIOS,54.120693,17.97586,
ES1653A,Sevilla,ES,no2,5.0,2020-04-07 09:00:00 UTC,µg/m³,EEA Spain,37.284490000000005,-5.91384,1.0
La Joya,Nijar,ES,so2,1.0,2018-10-12 22:00:00 UTC,µg/m³,Andalucia,36.950005,-1.9614835,24.0
LYNN,Boston-Cambridge-Quincy,US,no2,0.003,2020-04-07 19:00:00 UTC,ppm,AirNow,42.4747,-70.9719,1.0
"Jayanagar 5th Block, Bengaluru - KSPCB",Bengaluru,IN,pm10,10.0,2020-04-07 21:00:00 UTC,µg/m³,caaqm,12.920983999999999,77.58491,0.25
Prishtine - IHMK,Prishtine,XK,o3,85.079,2020-04-07 21:00:00 UTC,µg/m³,Kosovo,42.648872,21.137121,1.0
"Sanjay Nagar, Ghaziabad - UPPCB",Ghaziabad,IN,pm25,53.0,2020-03-30 23:00:00 UTC,µg/m³,caaqm,28.685383,77.45384,0.25
Sparks,Reno-Sparks,US,co,0.1,2020-04-07 20:00:00 UTC,ppm,AirNow,39.54092,-119.746765,1.0
The Dalles - Cherry,City of The Dalles,US,o3,0.024,2018-10-01 21:00:00 UTC,ppm,AirNow,45.60242,-121.20338400000001,1.0
Doğubeyazıt,Ağrı,TR,pm10,112.0,2018-10-13 21:00:00 UTC,µg/m³,Turkey,39.5476,44.083595,1.0
AM4 Gdynia Pogórze,Gdynia,PL,pm10,17.2151,2020-04-07 20:00:00 UTC,µg/m³,GIOS,54.560837,18.493332000000002,
Sverresgate,Grenland,NO,no2,22.373082999999998,2020-04-07 20:00:00 UTC,µg/m³,Norway,59.138119999999994,9.65212,1.0
Prishtine - IHMK,Prishtine,XK,no2,4.24,2020-04-07 21:00:00 UTC,µg/m³,Kosovo,42.648872,21.137121,1.0
תחנה:גליל עליון,שפלה פנימית,IL,o3,0.0248,2019-04-03 21:00:00 UTC,ppm,Israel,31.889425,34.915092,0.25
Pingtung,屏東縣,TW,no2,0.013999999999999999,2020-04-07 21:00:00 UTC,ppm,Taiwan,22.67308,120.48803000000001,1.0
Ringsakervegen,Brumunddal,NO,no2,53.936337,2020-01-07 11:00:00 UTC,µg/m³,Norway,60.88593,10.93785,1.0
Boyabat,Sinop,TR,co,154.0,2018-10-13 21:00:00 UTC,µg/m³,Turkey,41.461216,34.776965999999994,1.0
Aksaray,İstanbul,TR,o3,5.0,2018-06-12 16:00:00 UTC,µg/m³,Turkey,41.014720000000004,28.954721000000003,1.0
"Kalyana Nagara, Chikkamagaluru - KSPCB",Chikkamagaluru,IN,so2,2.25,2020-04-07 18:45:00 UTC,µg/m³,caaqm,13.328028,75.79706,0.25
Działoszyn,Działoszyn,PL,no2,2.12657,2019-12-31 22:00:00 UTC,µg/m³,GIOS,50.972167999999996,14.941319,
"Waterloo, Water Towe",Waterloo-Cedar Falls,US,pm25,15.0,2020-04-07 20:00:00 UTC,µg/m³,AirNow,42.5014,-92.3158,1.0
Arlington Municipal,Dallas-Fort Worth-Arlington,US,pm25,7.1,2018-12-04 15:00:00 UTC,µg/m³,AirNow,32.6558,-97.0886,1.0
Sweet Home - Fire De,Albany-Lebanon,US,pm25,4.6,2020-04-07 20:00:00 UTC,µg/m³,AirNow,44.3958,-122.7305,1.0
Denver - CAMP - 2105,Denver-Aurora,US,o3,0.053,2020-04-07 19:00:00 UTC,ppm,AirNow,39.7511,-104.9872,1.0
SPABC14 COBACH,BAJA CALIFORNIA NORTE,MX,pm25,11.0,2020-04-07 20:00:00 UTC,µg/m³,AirNow,32.6336,-115.5042,1.0
South DeKalb,Atlanta-Sandy Springs-Marietta,US,co,0.22,2020-04-07 20:00:00 UTC,ppm,AirNow,33.6906,-84.2731,1.0
Leavenworth-Evans St,Wenatchee,US,pm25,3.9,2020-04-07 19:00:00 UTC,µg/m³,AirNow,47.5988,-120.6647,1.0
Hoxeyville,WEXFORD,US,o3,0.032,2020-04-07 19:00:00 UTC,ppm,AirNow,44.1809,-85.73899999999999,1.0
Steeper,ALBERTA,CA,no2,0.001,2020-04-07 19:00:00 UTC,ppm,AirNow,53.1325,-117.09111000000001,1.0
Aberdeen,Aberdeen,GB,no2,15.0,2020-04-07 20:00:00 UTC,µg/m³,DEFRA,57.15736,-2.094278,1.0
Long Beach - Hudson,Los Angeles-Long Beach-Santa Ana,US,o3,0.013999999999999999,2019-12-14 00:00:00 UTC,ppm,AirNow,33.802417999999996,-118.21993,1.0
Gaeta,Latina,IT,o3,78.0,2020-04-04 22:00:00 UTC,µg/m³,ARPALAZIO,41.223076,13.570481,1.0
Radom-Tochtermana,Radom,PL,co,1169.85,2020-04-07 20:00:00 UTC,µg/m³,GIOS,51.399082,21.147474,
Cinecitta,Roma,IT,o3,83.0,2020-04-04 22:00:00 UTC,µg/m³,ARPALAZIO,41.85772,12.568665,1.0
Misheel expo,Ulaanbaatar,MN,pm10,145.0,2019-03-13 22:00:00 UTC,µg/m³,Agaar.mn,47.89434,106.88247,
St. Lukes Meridian,Boise City-Nampa,US,o3,0.032,2020-04-07 20:00:00 UTC,ppm,AirNow,43.6007,-116.34785500000001,1.0
Lewistown,FERGUS,US,o3,0.049,2020-04-07 19:00:00 UTC,ppm,AirNow,47.04854,-109.45531499999998,1.0
Hammond-167th St,Chicago-Naperville-Joliet,US,pm25,11.8,2020-04-07 20:00:00 UTC,µg/m³,AirNow,41.594425,-87.49504,1.0
"Starachowice, ul. Złota",Starachowice,PL,pm10,49.93,2020-04-07 21:00:00 UTC,µg/m³,GIOS,51.05061,21.084175,
Sunnyside-S 16th,YAKIMA,US,pm25,8.5,2020-04-07 19:00:00 UTC,µg/m³,AirNow,46.32033,-119.9981,1.0
"Ban Suan, Mueang",Chon Buri,TH,no2,0.004,2020-04-07 20:00:00 UTC,ppm,Thailand,13.360626000000002,100.98454,1.0
Tustervatn,Tustervatn,NO,o3,78.2,2020-04-07 20:00:00 UTC,µg/m³,Norway,65.83089,13.90655,1.0
DCNearRoad,Washington-Arlington-Alexandria,US,pm25,2.0,2020-04-07 20:00:00 UTC,µg/m³,AirNow,38.89475,-76.95343000000001,1.0
Borowiec-Drapalka,Borówiec,PL,so2,1.8315599999999999,2019-12-31 22:00:00 UTC,µg/m³,GIOS,52.276794,17.074114,
Santa Clarita,Los Angeles-Long Beach-Santa Ana,US,pm25,-4.9,2020-04-07 20:00:00 UTC,µg/m³,AirNow,34.3833,-118.5283,1.0
Lillehammer barnehage,Lillehammer,NO,pm10,15.412833,2020-04-07 20:00:00 UTC,µg/m³,Norway,61.12087,10.46563,1.0
Tacoma-L St,Seattle-Tacoma-Bellevue,US,pm25,5.0,2020-04-07 19:00:00 UTC,µg/m³,AirNow,47.1864,-122.4517,1.0
Fontechiari,Frosinone,IT,pm10,17.0,2020-04-03 22:00:00 UTC,µg/m³,ARPALAZIO,41.67,13.674472,24.0
Mailiao,雲林縣,TW,pm10,34.0,2020-04-07 21:00:00 UTC,µg/m³,Taiwan,23.753505999999998,120.25182,1.0
Sorgun,Yozgat,TR,co,-335582.0,2018-04-05 06:00:00 UTC,µg/m³,Turkey,39.806248,35.18163,1.0
Suzhou Huo Che Zhan,Suzhou,CN,o3,65.0,2018-10-13 21:00:00 UTC,µg/m³,Suzhou,33.63064,116.98899999999999,1.0
MONCTON,NEW BRUNSWICK,CA,no2,0.001,2020-04-07 19:00:00 UTC,ppm,AirNow,46.11,-64.79,1.0
LIVONIA NEAR ROAD,WAYNE,US,pm25,15.8,2018-01-19 14:00:00 UTC,µg/m³,AirNow,42.421494,-83.42517,1.0
"Lumpyngngad, Shillong - Meghalaya PCB",Shillong,IN,pm10,0.0,2020-04-04 18:00:00 UTC,µg/m³,caaqm,25.5586,91.8985,0.25
Silivri-MTHM,İstanbul,TR,no2,5.0,2018-10-13 20:00:00 UTC,µg/m³,Turkey,41.07318,28.255540000000003,1.0
Preneste,Roma,IT,pm10,21.0,2020-04-03 22:00:00 UTC,µg/m³,ARPALAZIO,41.886016999999995,12.541614,24.0
Dali,Central,TW,o3,0.019,2020-04-07 21:00:00 UTC,ppm,Taiwan,24.099611,120.67768999999998,1.0
Piotrków Tryb.-Krakowskie Przedmieście,Piotrków Trybunalski,PL,co,1447.0,2020-04-07 21:00:00 UTC,µg/m³,GIOS,51.404408000000004,19.696957,
Kuwait City,,KU,pm25,43.0,2020-04-07 20:00:00 UTC,µg/m³,AirNow,29.292315999999996,48.04768,1.0
Karaağaç-MTHM,Edirne,TR,so2,-1.0,2018-10-13 20:00:00 UTC,µg/m³,Turkey,41.65914,26.53732,1.0
Southwark A2 Old Kent Road,London,GB,pm10,22.0,2020-04-02 03:00:00 UTC,µg/m³,DEFRA,51.4805,-0.05955,24.0
"Bang Nak, Mueang",Narathiwat,TH,o3,0.01,2020-04-07 20:00:00 UTC,ppm,Thailand,6.427698,101.82356999999999,1.0
PEORIA_H,Peoria,US,o3,0.044000000000000004,2020-04-07 19:00:00 UTC,ppm,AirNow,40.745,-89.5861,1.0
Columbus - Maple Can,Columbus,US,o3,0.045,2020-04-07 20:00:00 UTC,ppm,AirNow,40.087807,-82.95959,1.0
Ladybower,Ladybower,GB,o3,89.0,2020-04-07 20:00:00 UTC,µg/m³,DEFRA,53.403369999999995,-1.7520060000000002,8.0
Chico -  East,BUTTE,US,o3,0.036000000000000004,2020-04-07 19:00:00 UTC,ppm,AirNow,39.76168,-121.84047,1.0
"Industrial Area, Hajipur - BSPCB",Hajipur,IN,pm10,61.79,2020-04-07 20:45:00 UTC,µg/m³,caaqm,25.69719,85.2459,0.25
St. Marks Wildlife R,Tallahassee,US,pm25,5.7,2020-04-07 19:00:00 UTC,µg/m³,AirNow,30.0842,-84.1617,1.0
Inverness,Inverness,GB,pm25,7.0,2020-04-07 20:00:00 UTC,µg/m³,DEFRA,57.481308,-4.2414510000000005,24.0
Berkeley Aquatic Par,ALAMEDA,US,no2,0.016,2020-04-07 19:00:00 UTC,ppm,AirNow,37.864765000000006,-122.30273999999999,1.0
Southampton A33,Southampton,GB,no2,106.0,2020-04-07 20:00:00 UTC,µg/m³,DEFRA,50.920265,-1.463484,1.0
POTAWATOMI,FOREST,US,o3,0.026000000000000002,2020-04-07 20:00:00 UTC,ppm,AirNow,45.5639,-88.81,1.0
Jerome Mack,Las Vegas-Paradise,US,no2,0.006,2020-04-07 20:00:00 UTC,ppm,AirNow,36.141876,-115.07874,1.0
"DRM Office Danapur, Patna - BSPCB",Patna,IN,so2,0.0,2020-04-06 17:15:00 UTC,µg/m³,caaqm,25.586561,85.04359000000001,0.25
Wigan Centre,Wigan,GB,pm25,10.0,2020-04-07 20:00:00 UTC,µg/m³,DEFRA,53.54914,-2.638139,24.0
Miaoli,苗栗縣,TW,so2,0.002,2020-04-07 21:00:00 UTC,ppm,Taiwan,24.56527,120.8202,1.0
Potosi,GRANT,US,pm25,14.4,2020-04-07 20:00:00 UTC,µg/m³,AirNow,42.69213,-90.69637,1.0
Clarkston-13th St,ASOTIN,US,pm25,4.4,2020-04-07 19:00:00 UTC,µg/m³,AirNow,46.4256,-117.0598,1.0
Piney Run,GARRETT,US,o3,0.046,2020-04-07 20:00:00 UTC,ppm,AirNow,39.7058,-79.0119,1.0
Molson,QUEBEC,CA,so2,0.0,2020-04-07 20:00:00 UTC,ppm,AirNow,45.54271,-73.57176,1.0
Mt. Washington base,Berlin,US,o3,0.047,2020-04-07 20:00:00 UTC,ppm,AirNow,44.308132,-71.217636,1.0
Aksaray,İstanbul,TR,so2,10.0,2018-06-12 16:00:00 UTC,µg/m³,Turkey,41.014720000000004,28.954721000000003,1.0
"Silk Board, Bengaluru - KSPCB",Silkboard Junction 323,IN,o3,20.8,2020-04-07 21:00:00 UTC,µg/m³,caaqm,12.917347999999999,77.62281,0.25
Nisko-Szklarniowa-WIOS,Nisko,PL,no2,32.684,2020-04-07 21:00:00 UTC,µg/m³,GIOS,50.529892,22.112467000000002,
Maspeth,New York-Northern New Jersey-Long Island,US,pm25,3.3,2020-04-07 19:00:00 UTC,µg/m³,AirNow,40.7269,-73.8933,1.0
Santa Barbara,Santa Barbara-Santa Maria,US,pm10,5.0,2020-04-07 20:00:00 UTC,µg/m³,AirNow,34.42775,-119.69091,1.0
"Gangapur Road, Nashik - MPCB",Nashik,IN,pm25,23.63,2020-04-07 21:00:00 UTC,µg/m³,caaqm,20.007328,73.77624499999999,0.25
Redwash,UINTAH,US,o3,0.05,2020-04-07 20:00:00 UTC,ppm,AirNow,40.204433,-109.35321,1.0
Calexico - Ethel Str,El Centro,US,pm25,3.0,2020-04-07 19:00:00 UTC,µg/m³,AirNow,32.67618,-115.48307,1.0
Puyallup-128th St,Seattle-Tacoma-Bellevue,US,pm25,4.1,2020-04-07 19:00:00 UTC,µg/m³,AirNow,47.1405,-122.2992,1.0
Zhushan,南投縣,TW,pm25,22.0,2020-04-07 21:00:00 UTC,µg/m³,Taiwan,23.75639,120.67731,1.0
West Union,ADAMS,US,so2,0.0,2020-04-07 20:00:00 UTC,ppm,AirNow,38.794709999999995,-83.53399,1.0
Abbotsford Airport,BRITISH COLUMBIA,CA,o3,0.042,2020-04-07 20:00:00 UTC,ppm,AirNow,49.021507,-122.32655,1.0
AAQMS Karve Road Pune,Pune,IN,o3,15.76,2018-02-22 03:00:00 UTC,µg/m³,CPCB,18.497484,73.81349,0.25
UH Coastal Center C697,Houston,US,co,0.2,2016-03-06 18:00:00 UTC,ppm,Texas,29.3879,-95.0414,1.0
Bydgoszcz Warszawska,Bydgoszcz,PL,no2,24.8,2020-04-07 21:00:00 UTC,µg/m³,GIOS,53.134083,17.995708,
Sarnia,ONTARIO,CA,o3,0.035,2020-04-07 19:00:00 UTC,ppm,AirNow,42.990265,-82.39534,1.0
Tulsa 0175,TULSA,US,so2,0.0,2020-04-07 20:00:00 UTC,ppm,AirNow,36.149876,-96.01166500000001,1.0
San Antonio,Tampa-St. Petersburg-Clearwater,US,o3,0.051,2020-04-07 19:00:00 UTC,ppm,AirNow,28.3322,-82.3056,1.0
Plymouth Centre,Plymouth,GB,pm10,14.0,2020-04-07 20:00:00 UTC,µg/m³,DEFRA,50.37167,-4.142361,24.0
Camden Kerbside,London,GB,pm25,11.0,2020-04-07 20:00:00 UTC,µg/m³,DEFRA,51.54421,-0.175269,24.0
Glenpool,Tulsa,US,pm25,7.4,2020-04-07 20:00:00 UTC,µg/m³,AirNow,35.9525,-96.0033,1.0
ES0787A,Huelva,ES,so2,8.0,2020-04-07 09:00:00 UTC,µg/m³,EEA Spain,37.190329999999996,-6.90453,1.0
Chuzhou Jian Ce Zhan,Chuzhou,CN,o3,41.0,2018-10-13 21:00:00 UTC,µg/m³,Chuzhou,32.3061,118.3158,1.0
Beaufort,Morehead City,US,o3,0.046,2020-04-07 19:00:00 UTC,ppm,AirNow,34.8848,-76.6203,1.0
Rifle Ozone,GARFIELD,US,o3,0.051,2020-04-07 19:00:00 UTC,ppm,AirNow,39.5418,-107.7841,1.0
"H.B. Colony, Bhiwani - HSPCB",Bhiwani,IN,o3,50.78,2020-04-07 19:45:00 UTC,µg/m³,caaqm,28.806223,76.14110600000001,0.25
Bekkestua,Bærum,NO,pm25,8.1,2020-04-07 20:00:00 UTC,µg/m³,Norway,59.9181,10.5839,1.0
Middlesbrough,Middlesbrough,GB,o3,79.0,2020-04-07 20:00:00 UTC,µg/m³,DEFRA,54.569297999999996,-1.220874,8.0
Castel di Guido,Roma,IT,pm10,17.0,2020-04-03 22:00:00 UTC,µg/m³,ARPALAZIO,41.88944,12.2663,24.0
"Bang Phut, Pak Kret",Nonthaburi,TH,co,1.61,2020-04-07 20:00:00 UTC,ppm,Thailand,13.907827,100.53565,1.0
Lunbei,Yun-Chia-Nan,TW,no2,0.006999999999999999,2020-04-07 21:00:00 UTC,ppm,Taiwan,23.757547,120.34873999999999,1.0
Clovis - N. Villa Av,Fresno,US,o3,0.037000000000000005,2020-04-07 19:00:00 UTC,ppm,AirNow,36.8192,-119.7164,1.0
Folsom,Sacramento--Arden-Arcade--Roseville,US,no2,0.002,2019-07-22 16:00:00 UTC,ppm,AirNow,38.683304,-121.16446,1.0
תחנה:אגן כימיקלים,צפון,IL,co,0.2,2019-04-03 21:00:00 UTC,ppm,Israel,32.91575,35.29302,0.25
Kingston,ONTARIO,CA,o3,0.045,2020-04-07 19:00:00 UTC,ppm,AirNow,44.219868,-76.521126,1.0
Maslak,İstanbul,TR,co,0.0,2018-01-15 07:00:00 UTC,µg/m³,Turkey,41.101315,29.024492,1.0
W Greenwich,Providence-New Bedford-Fall River,US,o3,0.049,2020-04-07 15:00:00 UTC,ppm,AirNow,41.615,-71.7197,1.0
"Zoo Park, Hyderabad - TSPCB",Hyderabad,IN,no2,17.9,2020-04-02 22:15:00 UTC,µg/m³,caaqm,17.349693,78.45144,0.25
Płock-Gimnazjum,Płock,PL,co,141.278,2019-12-31 22:00:00 UTC,µg/m³,GIOS,52.55628000000001,19.687672,
South Pass,Riverton,US,o3,0.044000000000000004,2020-04-07 20:00:00 UTC,ppm,AirNow,42.5275,-108.7203,1.0
"Chandrapur, Chandrapur - MPCB",Chandrapur,IN,so2,23.7,2020-04-07 21:00:00 UTC,µg/m³,caaqm,19.645325,77.63452,0.25
DET POLICE 4TH,Detroit-Warren-Livonia,US,pm25,11.1,2020-04-07 20:00:00 UTC,µg/m³,AirNow,42.312157,-83.09194000000001,1.0
"Arya Nagar, Bahadurgarh - HSPCB",Bahadurgarh ,IN,pm25,29.1,2020-04-07 20:15:00 UTC,µg/m³,caaqm,28.6701,76.9254,0.25
Hafod-yr-ynys Roadside,Swfrryd,GB,no2,47.0,2020-04-07 20:00:00 UTC,µg/m³,DEFRA,51.68058,-3.133508,1.0
Fond du Lac,CARLTON,US,pm25,5.0,2020-04-07 20:00:00 UTC,µg/m³,AirNow,46.713696,-92.51172,1.0
Rieti 1,Rieti,IT,co,600.0,2020-04-04 22:00:00 UTC,µg/m³,ARPALAZIO,42.404095,12.858224,1.0
Rossville,Chattanooga,US,pm10,26.0,2020-04-07 20:00:00 UTC,µg/m³,AirNow,34.9789,-85.3009,1.0
Seattle-10th & Welle,Seattle-Tacoma-Bellevue,US,no2,0.015,2020-04-07 19:00:00 UTC,ppm,AirNow,47.59722,-122.319725,1.0
Durham Armory,Durham,US,pm25,9.0,2020-04-07 19:00:00 UTC,µg/m³,AirNow,36.032955,-78.90404000000001,1.0
Anaheim,Los Angeles-Long Beach-Santa Ana,US,no2,0.006,2020-04-07 20:00:00 UTC,ppm,AirNow,33.830585,-117.93851000000001,1.0
Substation,Farmington,US,no2,0.0,2020-04-07 20:00:00 UTC,ppm,AirNow,36.7969,-108.4725,1.0
Cave Junction Forest,JOSEPHINE,US,pm25,4.3,2020-04-07 20:00:00 UTC,µg/m³,AirNow,42.1617,-123.64835,1.0
ES1977A,Las Palmas,ES,pm25,8.0,2020-01-14 09:00:00 UTC,µg/m³,EEA Spain,27.898329999999998,-15.48833,1.0
Centar,MK005A,MK,o3,14.0,2018-10-13 21:00:00 UTC,µg/m³,Bosnia2,41.992,21.423000000000002,1.0
Bakke kirke,Trondheim,NO,no2,5.734474,2020-04-07 20:00:00 UTC,µg/m³,Norway,63.432930000000006,10.41067,1.0
BCSP,Philadelphia-Camden-Wilmington,US,o3,0.05,2020-04-07 20:00:00 UTC,ppm,AirNow,39.8172,-75.5639,1.0
Harmani,Jajce,BA,o3,6.0,2018-10-13 21:00:00 UTC,µg/m³,Bosnia2,44.343,17.268,1.0
AM8 Gdańsk Wrzeszcz,Gdańsk,PL,o3,71.9513,2020-04-07 20:00:00 UTC,µg/m³,GIOS,54.380280000000006,18.620274,
"MED-LAYE - Medellín, El Poblado - Tanques La Ye EPM",Medellin,CO,pm25,5.0,2020-04-07 21:00:00 UTC,µg/m³,Medellin,6.182542,-75.55064,1.0
Dongshan,Yilan,TW,so2,0.0015,2020-04-07 21:00:00 UTC,ppm,Taiwan,24.632202,121.79293,1.0
ES2025A,Las Palmas,ES,so2,4.0,2020-04-06 16:00:00 UTC,µg/m³,EEA Spain,28.506159999999998,-13.84898,1.0
"Rabindra Sarobar, Kolkata - WBPCB",Kolkata,IN,o3,14.76,2020-04-07 17:45:00 UTC,µg/m³,caaqm,22.51106,88.35141999999999,0.25
"Sop Pat, Mae Mo",Lampang,TH,no2,0.008,2020-04-07 20:00:00 UTC,ppm,Thailand,18.247768,99.76689,1.0
Stoke-on-Trent Centre,Stoke-on-Trent,GB,no2,29.0,2020-04-07 20:00:00 UTC,µg/m³,DEFRA,53.028209999999994,-2.175133,1.0
Saint-Jean-Baptiste,,CA,pm25,3.2,2020-04-07 20:00:00 UTC,µg/m³,AirNow,45.641026000000004,-73.49968,1.0
PICTOU,NOVA SCOTIA,CA,o3,0.04,2020-04-07 19:00:00 UTC,ppm,AirNow,45.6819,-62.6953,1.0
Athens,Athens-Clarke County,US,pm10,15.0,2020-04-05 23:00:00 UTC,µg/m³,AirNow,33.925,-83.3575,1.0
ES1866A,Las Palmas,ES,so2,6.0,2020-04-06 16:00:00 UTC,µg/m³,EEA Spain,28.502762,-13.8537,1.0
Tacoma-S 36th St,Seattle-Tacoma-Bellevue,US,no2,0.013999999999999999,2020-04-07 19:00:00 UTC,ppm,AirNow,47.22634,-122.46256000000001,1.0
"Alandur Bus Depot, Chennai - CPCB",MKN Rd,IN,so2,0.54,2020-04-07 21:00:00 UTC,µg/m³,caaqm,12.909916,80.10765,0.25
Moncks Corner,BERKELEY,US,o3,0.054000000000000006,2020-04-07 20:00:00 UTC,ppm,AirNow,33.183018,-80.03071,1.0
High School,Phoenix-Mesa-Scottsdale,US,o3,0.043,2020-04-07 20:00:00 UTC,ppm,AirNow,33.508,-111.8378,1.0
ADEQ-DSR,Little Rock-North Little Rock,US,pm25,7.3,2020-04-07 16:00:00 UTC,µg/m³,AirNow,34.6811,-92.3283,1.0
Chiayi,嘉義市,TW,pm25,24.0,2020-04-07 21:00:00 UTC,µg/m³,Taiwan,23.462778,120.44083400000001,1.0
Fengyuan,臺中市,TW,pm10,8.0,2020-04-07 21:00:00 UTC,µg/m³,Taiwan,24.256586,120.74171399999999,1.0
NEW,PHILADELPHIA,US,so2,0.0,2020-04-07 20:00:00 UTC,ppm,AirNow,39.99139,-75.08083,1.0
Fellows Lake,GREENE,US,o3,0.039,2020-04-07 19:00:00 UTC,ppm,AirNow,37.319443,-93.20444499999999,1.0
SIMMONS PARK,Tampa-St. Petersburg-Clearwater,US,o3,0.051,2020-04-07 20:00:00 UTC,ppm,AirNow,27.7403,-82.4656,1.0
Duncan 4804,BRITISH COLUMBIA,CA,pm25,5.0,2020-04-07 19:00:00 UTC,µg/m³,AirNow,48.786114000000005,-123.71731000000001,1.0
JAMESVIL,MARTIN,US,so2,0.0,2020-04-03 13:00:00 UTC,ppm,AirNow,35.8111,-76.9067,1.0
Ozanlar-MTHM,Sakarya,TR,so2,6.0,2018-10-13 20:00:00 UTC,µg/m³,Turkey,40.79072,30.39692,1.0
Edmonton East,ALBERTA,CA,pm25,3.6,2020-04-07 19:00:00 UTC,µg/m³,AirNow,53.5472,-113.3681,1.0
Roseville - N.Sunris,Sacramento--Arden-Arcade--Roseville,US,no2,0.003,2020-04-07 19:00:00 UTC,ppm,AirNow,38.74643,-121.26498000000001,1.0
Wuhu Jian Ce Zhan,Wuhu,CN,no2,41.0,2018-10-13 21:00:00 UTC,µg/m³,Wuhu,31.3508,118.3528,1.0
Troost,Kansas City,US,so2,0.001,2020-04-07 19:00:00 UTC,ppm,AirNow,39.10465,-94.57055,1.0
Shenandoah NP,MADISON,US,pm25,0.0,2020-04-07 19:00:00 UTC,µg/m³,AirNow,38.5231,-78.4347,1.0
"Ardhali Bazar, Varanasi - UPPCB",Ordali Bazar,IN,pm25,80.0,2020-04-07 21:00:00 UTC,µg/m³,caaqm,25.3506,82.90831,0.25
Madison-Beach Road,New Haven-Milford,US,o3,0.062,2020-04-07 20:00:00 UTC,ppm,AirNow,41.2569,-72.55322,1.0
ES0624A,Almería,ES,so2,3.0,2020-04-07 09:00:00 UTC,µg/m³,EEA Spain,36.84745,-2.03819,1.0
Hsinchu,Chu-Miao,TW,no2,0.011000000000000001,2020-04-07 21:00:00 UTC,ppm,Taiwan,24.805618,120.97208,1.0
Foley,St. Louis,US,o3,0.046,2016-11-07 19:00:00 UTC,ppm,AirNow,39.04505,-90.86632,1.0
Boise Eastman,Boise City-Nampa,US,co,0.2,2020-04-07 20:00:00 UTC,ppm,AirNow,43.61638,-116.20382,1.0
Boston-Von Hillern,SUFFOLK,US,pm25,4.0,2020-04-07 19:00:00 UTC,µg/m³,AirNow,42.325195,-71.05605,1.0
AM5 Gdańsk Szadółki,Gdańsk,PL,so2,2.09023,2019-12-31 22:00:00 UTC,µg/m³,GIOS,54.328334999999996,18.557781,
Edmonton East,ALBERTA,CA,co,0.2,2020-04-07 19:00:00 UTC,ppm,AirNow,53.5472,-113.3681,1.0
Bygdøy Alle,Oslo,NO,no2,39.839085,2020-04-07 20:00:00 UTC,µg/m³,Norway,59.918980000000005,10.69707,1.0
Şile-MTHM,İstanbul,TR,o3,81.0,2018-10-13 20:00:00 UTC,µg/m³,Turkey,41.17046,29.56336,1.0
Chuzhou Lao Nian Da Xue,Chuzhou,CN,pm25,38.0,2018-10-13 21:00:00 UTC,µg/m³,Chuzhou,32.3153,118.3094,1.0
Taft,Cincinnati-Middletown,US,o3,0.05,2020-04-07 20:00:00 UTC,ppm,AirNow,39.128859999999996,-84.50404,1.0
ES1076A,Cádiz,ES,so2,4.0,2020-04-07 09:00:00 UTC,µg/m³,EEA Spain,36.19048,-5.43576,1.0
"Hebbal, Bengaluru - KSPCB",Opp.: CBI Office,IN,o3,37.24,2020-04-07 21:00:00 UTC,µg/m³,caaqm,13.029152,77.5859,0.25
Suzhou Jian Ce Lou,Suzhou,CN,co,415.0,2018-10-13 21:00:00 UTC,µg/m³,Suzhou,33.6481,116.9765,1.0
"Muradpur, Patna - BSPCB",Patna,IN,so2,5.8,2020-04-07 18:30:00 UTC,µg/m³,caaqm,25.619652,85.147385,0.25
Shalu,Central,TW,pm25,11.0,2020-04-07 21:00:00 UTC,µg/m³,Taiwan,24.225628,120.568794,1.0
"Major Dhyan Chand National Stadium, Delhi - DPCC","
National Stadium",IN,pm25,24.0,2020-04-07 20:30:00 UTC,µg/m³,caaqm,28.611279999999997,77.23774,0.25
Chiayi,嘉義市,TW,co,0.32,2020-04-07 21:00:00 UTC,ppm,Taiwan,23.462778,120.44083400000001,1.0
Isla Blanca C323/C66,CAMERON,US,pm25,11.8,2019-10-02 15:00:00 UTC,µg/m³,AirNow,26.0733,-97.1667,1.0
Warszawa-Targówek,Warszawa,PL,so2,2.38,2019-12-31 22:00:00 UTC,µg/m³,GIOS,52.290863,21.042458,
Fontechiari,Frosinone,IT,o3,51.0,2020-04-04 22:00:00 UTC,µg/m³,ARPALAZIO,41.67,13.674472,1.0
Goodland,SHERMAN,US,pm10,9.0,2020-04-07 20:00:00 UTC,µg/m³,AirNow,39.3428,-101.702995,1.0
Principes,Sevilla,ES,no2,24.0,2018-10-12 21:50:00 UTC,µg/m³,Andalucia,37.37525,-6.005578,1.0
GC_MAD,St. Louis,US,pm25,11.4,2020-04-07 19:00:00 UTC,µg/m³,AirNow,38.7045,-90.1397,1.0
"Bang Phut, Pak Kret",Nonthaburi,TH,pm10,36.0,2020-04-07 20:00:00 UTC,µg/m³,Thailand,13.907827,100.53565,24.0
"Muzaffarpur Collectorate, Muzaffarpur - BSPCB",Muzaffarpur,IN,pm25,72.0,2020-04-07 21:00:00 UTC,µg/m³,caaqm,26.1209,85.3647,0.25
Xitun,Central,TW,o3,0.040999999999999995,2020-04-07 21:00:00 UTC,ppm,Taiwan,24.162197,120.61692,1.0
"RIICO Ind. Area III, Bhiwadi - RSPCB",Phase-lll,IN,no2,20.8,2020-04-07 20:45:00 UTC,µg/m³,caaqm,28.194908,76.8623,0.25
Portland - Sauvie Is,Portland-Vancouver-Beaverton,US,o3,0.017,2019-10-03 17:00:00 UTC,ppm,AirNow,45.76853,-122.7721,1.0
Xiaogang,KaoPing,TW,co,0.41,2020-04-07 21:00:00 UTC,ppm,Taiwan,22.565832,120.33774,1.0
Manchester Piccadilly,Manchester,GB,pm25,9.0,2020-04-07 20:00:00 UTC,µg/m³,DEFRA,53.481519999999996,-2.2378810000000002,24.0
Bydgoszcz Warszawska,Bydgoszcz,PL,o3,53.0,2020-04-07 21:00:00 UTC,µg/m³,GIOS,53.134083,17.995708,
ES0827A,Huelva,ES,pm10,17.46,2020-04-07 09:00:00 UTC,µg/m³,EEA Spain,37.3154,-6.84463,1.0
"Punjab Agricultural University, Ludhiana - PPCB",Ludhiana,IN,pm10,26.73,2020-04-07 20:45:00 UTC,µg/m³,caaqm,30.9028,75.8086,0.25
"Collectorate, Gaya - BSPCB",Gaya,IN,so2,14.1,2020-04-07 19:00:00 UTC,µg/m³,caaqm,24.7955,84.9994,0.25
Huainan Pan Ji Qu Zheng Fu,Huainan,CN,o3,60.0,2018-10-13 21:00:00 UTC,µg/m³,Huainan,32.7639,116.8028,1.0
"Manali Village, Chennai - TNPCB",Government School,IN,so2,7.31,2020-04-07 18:00:00 UTC,µg/m³,caaqm,11.258244,77.55243,0.25
Wadsworth-NV,Reno-Sparks,US,pm10,5.0,2020-04-07 20:00:00 UTC,µg/m³,AirNow,39.6367,-119.2889,1.0
תחנה:לוזית,ירושלים,IL,co,0.6,2019-04-03 21:00:00 UTC,ppm,Israel,31.75709,35.21741,0.25
Alandur Bus Depot,Chennai,IN,o3,6.82,2018-02-22 03:45:00 UTC,µg/m³,CPCB,12.997114,80.19151,0.25
IIT,Chennai,IN,o3,19.79,2018-02-22 03:45:00 UTC,µg/m³,CPCB,12.992514,80.23745,0.25
תחנה:כ.חסידים,שרון,IL,co,0.1,2019-04-03 21:00:00 UTC,ppm,Israel,32.372609999999995,34.97679,0.25
SAINT JOHN WEST,NEW BRUNSWICK,CA,pm25,11.0,2020-04-07 19:00:00 UTC,µg/m³,AirNow,45.2536,-66.0803,1.0
AM15 Malbork Mickiewicza,Malbork,PL,no2,16.8492,2020-04-07 21:00:00 UTC,µg/m³,GIOS,54.031245999999996,19.0329,
San Agustín,MEXICO STATE,MX,no2,0.006999999999999999,2020-04-07 19:00:00 UTC,ppm,AirNow,19.5329,-99.0303,1.0
Şirinevler-MTHM,İstanbul,TR,pm10,42.0,2018-10-13 20:00:00 UTC,µg/m³,Turkey,41.00245,28.838659999999997,1.0
Peje,Peje,XK,o3,23.858,2020-04-07 21:00:00 UTC,µg/m³,Kosovo,42.659690000000005,20.284597,1.0
FRANCONIA,Washington-Arlington-Alexandria,US,o3,0.042,2020-04-07 19:00:00 UTC,ppm,AirNow,38.7717,-77.1089,1.0
"Gangapur Road, Nashik - MPCB",Nashik,IN,o3,37.98,2020-04-07 21:00:00 UTC,µg/m³,caaqm,20.007328,73.77624499999999,0.25
"Rama IV Rd., Pathum Wan",Bangkok,TH,no2,0.006,2020-04-07 20:00:00 UTC,ppm,Thailand,13.729829999999998,100.53649,1.0
Legionowo-Zegrzyńska,Legionowo,PL,pm25,71.77,2020-04-07 20:00:00 UTC,µg/m³,GIOS,52.407578,20.955929,
RT,CLARK,US,no2,0.006,2020-04-07 20:00:00 UTC,ppm,AirNow,36.139706,-115.17565,1.0
"Sector 30, Faridabad - HSPCB",Faridabad,IN,no2,10.99,2020-04-07 20:45:00 UTC,µg/m³,caaqm,28.4417,77.3217,0.25
"IGSC Planetarium Complex, Patna - BSPCB",Patna,IN,pm25,64.0,2020-04-07 21:00:00 UTC,µg/m³,caaqm,25.5941,85.1376,0.25
Duncan,,CA,no2,0.004,2020-04-07 20:00:00 UTC,ppm,AirNow,45.502646999999996,-73.66391,1.0
Boston - North End,Boston-Cambridge-Quincy,US,pm25,8.0,2018-04-04 14:00:00 UTC,µg/m³,AirNow,42.3631,-71.0542,1.0
Horn Point,DORCHESTER,US,pm25,9.0,2020-04-07 20:00:00 UTC,µg/m³,AirNow,38.5876,-76.1408,1.0
ES1971A,Córdoba,ES,co,483.0,2020-04-07 09:00:00 UTC,µg/m³,EEA Spain,38.13793,-4.903969999999999,1.0
"Sector-12, Karnal - HSPCB",Karnal,IN,o3,18.05,2020-04-07 18:45:00 UTC,µg/m³,caaqm,29.6953,77.0027,0.25
Radakovo,Zenica,BA,no2,36.0,2018-10-13 21:00:00 UTC,µg/m³,Bosnia2,44.195,17.932000000000002,1.0
Qiaotou,KaoPing,TW,pm25,29.0,2020-04-07 21:00:00 UTC,µg/m³,Taiwan,22.757505,120.30568999999998,1.0
ALSIP,Chicago-Naperville-Joliet,US,pm25,2.5,2020-04-04 06:00:00 UTC,µg/m³,AirNow,41.6708,-87.7325,1.0
Suzhou Huo Che Zhan,Suzhou,CN,pm10,64.0,2018-10-13 21:00:00 UTC,µg/m³,Suzhou,33.63064,116.98899999999999,1.0
Portland - Spangler,Portland-Vancouver-Beaverton,US,o3,0.032,2019-10-03 20:00:00 UTC,ppm,AirNow,45.25928,-122.58815,1.0
Fairplay,PARK,US,pm10,5.0,2018-02-27 16:00:00 UTC,µg/m³,AirNow,39.2403,-105.9831,1.0
Zdzieszowice automat 2,Zdzieszowice,PL,no2,4.99346,2019-12-31 22:00:00 UTC,µg/m³,GIOS,50.423534000000004,18.120739,
Gary-IITRI,Chicago-Naperville-Joliet,US,o3,0.045,2020-04-07 20:00:00 UTC,ppm,AirNow,41.6067,-87.3047,1.0
תחנה:ק.ביאליק,ירושלים,IL,co,0.4,2019-04-03 21:00:00 UTC,ppm,Israel,31.7801,35.223929999999996,0.25
SPARTAN - Vietnam Acad. Sci.,Hanoi,VN,pm25,36.9,2015-08-21 01:00:00 UTC,µg/m³,Spartan,21.048000000000002,105.8,1.0
ES1745A,Las Palmas,ES,no2,6.0,2020-04-06 15:00:00 UTC,µg/m³,EEA Spain,27.897638,-15.445028,1.0
Rodalquilar,Nijar,ES,so2,5.0,2018-10-12 21:50:00 UTC,µg/m³,Andalucia,36.847454,-2.0381885,24.0
Wuhu Si Shui Han,Wuhu,CN,no2,43.0,2018-10-13 21:00:00 UTC,µg/m³,Wuhu,31.3178,118.3708,1.0
Warszawa-Tołstoja,Warszawa,PL,no2,13.76,2018-12-31 14:00:00 UTC,µg/m³,GIOS,52.285072,20.933018,
Yilan,Yilan,TW,o3,0.023,2020-04-07 21:00:00 UTC,ppm,Taiwan,24.747917,121.74638999999999,1.0
Hefei Yao Hai Qu,Hefei,CN,co,982.0,2018-10-13 21:00:00 UTC,µg/m³,Hefei,31.8585,117.336,1.0
Birney,ROSEBUD,US,o3,0.042,2020-04-07 19:00:00 UTC,ppm,AirNow,45.36615,-106.48982,1.0
Research Farm,BROOKINGS,US,o3,0.047,2020-04-07 20:00:00 UTC,ppm,AirNow,44.348602,-96.8073,1.0
Beaumont C2/C112,Beaumont-Port Arthur,US,o3,0.027000000000000003,2020-04-07 20:00:00 UTC,ppm,AirNow,30.0394,-94.0747,1.0
Hurdal25,Hurdal,NO,o3,70.6,2020-04-07 20:00:00 UTC,µg/m³,Norway,60.37288,11.074069999999999,1.0
Blaine,Minneapolis-St. Paul-Bloomington,US,pm25,7.0,2020-04-07 20:00:00 UTC,µg/m³,AirNow,45.1425,-93.2139,1.0
Cheyenne Mobile,Cheyenne,US,pm10,7.0,2017-03-30 15:00:00 UTC,µg/m³,AirNow,41.13,-104.75,1.0
BEL-USBV - Universidad San Buenaventura,Medellin,CO,o3,-9999.0,2020-04-07 21:00:00 UTC,ppm,Medellin,6.330697,-75.56867,1.0
Fort Independence Me,Bishop,US,pm10,11.0,2020-01-13 16:00:00 UTC,µg/m³,AirNow,36.8028,-118.1167,1.0
"BTM Layout, Bengaluru - KSPCB",Bengaluru,IN,no2,131.87,2018-02-22 03:00:00 UTC,µg/m³,CPCB,12.912811,77.60922,0.25
"Kraków, ul. Bulwarowa",Kraków,PL,pm10,77.7311,2020-04-07 21:00:00 UTC,µg/m³,GIOS,50.069309999999994,20.053492000000002,
Chesterfield,CHESTERFIELD,US,pm25,4.4,2020-03-31 10:00:00 UTC,µg/m³,AirNow,34.6153,-80.1989,1.0
"Jadavpur, Kolkata - WBPCB",Indian Association for the Cultivation Of Science,IN,no2,9.4,2020-04-07 18:00:00 UTC,µg/m³,caaqm,22.49929,88.36917,0.25
Warrington,Warrington,GB,no2,5.0,2020-04-07 20:00:00 UTC,µg/m³,DEFRA,53.38928000000001,-2.615358,1.0
Baytown Garth C1017,Houston,US,so2,-0.0001,2016-03-06 19:00:00 UTC,ppm,Texas,29.823318,-94.98379,1.0
Barnsley Gawber,Barnsley,GB,o3,79.0,2020-04-07 20:00:00 UTC,µg/m³,DEFRA,53.56292,-1.5104360000000001,8.0
Mazagon,Moguer,ES,so2,4.0,2018-10-12 21:50:00 UTC,µg/m³,Andalucia,37.133793,-6.807444599999999,24.0
Indpls - I-70 E,Indianapolis,US,no2,0.006999999999999999,2020-04-07 20:00:00 UTC,ppm,AirNow,39.787933,-86.13088,1.0
"Kraków, Aleja Krasińskiego",Kraków,PL,pm10,32.6542,2020-04-07 21:00:00 UTC,µg/m³,GIOS,50.05768,19.92619,
"Toruń, ul. Storczykowa",Toruń,PL,pm10,40.63,2018-12-31 22:00:00 UTC,µg/m³,GIOS,53.041945999999996,18.595036,
Merced - S. Coffee A,Merced,US,pm25,10.0,2020-04-07 19:00:00 UTC,µg/m³,AirNow,37.2817,-120.4336,1.0
Jenkins Avenue,Charleston-North Charleston,US,so2,0.001,2020-04-07 20:00:00 UTC,ppm,AirNow,32.882290000000005,-79.97754,1.0
תחנה:ניידת6,תחנות ניידות,IL,no2,0.0223,2019-04-03 21:00:00 UTC,ppm,Israel,32.811009999999996,34.9981,0.25
Coyote Ranger Distri,RIO ARRIBA,US,o3,0.05,2020-04-07 20:00:00 UTC,ppm,AirNow,36.187733,-106.69838,1.0
ES1971A,Córdoba,ES,no2,4.0,2020-04-07 09:00:00 UTC,µg/m³,EEA Spain,38.13793,-4.903969999999999,1.0
Carlisle Roadside,Carlisle,GB,pm10,22.0,2020-04-07 20:00:00 UTC,µg/m³,DEFRA,54.894833,-2.945307,24.0
Cheyenne Mobile,Cheyenne,US,pm25,4.5,2017-03-30 15:00:00 UTC,µg/m³,AirNow,41.13,-104.75,1.0
MADISON EAST,Madison,US,so2,0.0,2020-04-07 20:00:00 UTC,ppm,AirNow,43.1008,-89.3572,1.0
Bory Tucholskie,Zielonka,PL,so2,1.8,2020-04-07 21:00:00 UTC,µg/m³,GIOS,53.662117,17.934017,
Chehalis-Market Blvd,LEWIS,US,pm25,8.3,2020-04-07 19:00:00 UTC,µg/m³,AirNow,46.66409,-122.96732,1.0
Rivière-des-Prairies,,CA,no2,0.001,2020-04-07 20:00:00 UTC,ppm,AirNow,45.651722,-73.5739,1.0
Edmonton Central,ALBERTA,CA,co,0.4,2019-12-11 15:00:00 UTC,ppm,AirNow,53.5453,-113.4992,1.0
Viale De Chirico,Latina,IT,pm10,22.0,2020-04-03 22:00:00 UTC,µg/m³,ARPALAZIO,41.45113,12.891731,24.0
MMCA81019,SACRAMENTO,US,pm25,24.0,2020-01-22 23:00:00 UTC,µg/m³,AirNow,34.00249,-117.82950600000001,1.0
"Mahape, Navi Mumbai - MPCB",Maharashtra Pollution Control Board,IN,o3,6.57,2020-04-07 17:45:00 UTC,µg/m³,caaqm,19.113504000000002,73.00898000000001,0.25
COGGON,Cedar Rapids,US,o3,0.042,2020-04-07 20:00:00 UTC,ppm,AirNow,42.2806,-91.5269,1.0
Tempe,Phoenix-Mesa-Scottsdale,US,pm25,2.9,2020-04-07 19:00:00 UTC,µg/m³,AirNow,33.4124,-111.9347,1.0
"IDA Pashamylaram, Hyderabad - TSPCB",Hyderabad,IN,co,390.0,2020-04-07 21:00:00 UTC,µg/m³,caaqm,17.531689,78.21894,0.25
Wałbrzych - Wysockiego,Wałbrzych,PL,co,706.314,2020-04-07 21:00:00 UTC,µg/m³,GIOS,50.76873,16.269676,
Vallejo,Vallejo-Fairfield,US,co,0.24,2020-04-07 19:00:00 UTC,ppm,AirNow,38.102509999999995,-122.237976,1.0
Vernon Science Centr,BRITISH COLUMBIA,CA,pm25,4.6,2020-04-07 19:00:00 UTC,µg/m³,AirNow,50.2333,-119.2833,1.0
ES1793A,Huelva,ES,co,798.0,2020-03-30 23:00:00 UTC,µg/m³,EEA Spain,37.10409,-6.7340800000000005,1.0
Edmonton South,ALBERTA,CA,co,0.3,2020-04-07 19:00:00 UTC,ppm,AirNow,53.5028,-113.6111,1.0
"Lat Phrao Rd., Wang Thonglang",Bangkok,TH,co,0.01,2020-04-07 19:00:00 UTC,ppm,Thailand,13.792635,100.59608,1.0
Zhudong,新竹縣,TW,pm25,11.0,2020-04-07 21:00:00 UTC,µg/m³,Taiwan,24.740644,121.08890500000001,1.0
"Samanpura, Patna - BSPCB",Patna,IN,co,5400.0,2020-04-07 18:00:00 UTC,µg/m³,caaqm,25.596726999999998,85.085625,0.25
Denver - CAMP - 2105,Denver-Aurora,US,co,0.1,2020-04-07 19:00:00 UTC,ppm,AirNow,39.7511,-104.9872,1.0
Dayville,Evansville,US,o3,0.040999999999999995,2020-04-07 20:00:00 UTC,ppm,AirNow,37.9536,-87.29,1.0
Taixi,Yun-Chia-Nan,TW,so2,0.0018,2020-04-07 21:00:00 UTC,ppm,Taiwan,23.717533,120.20284,1.0
"RIMT University, Mandi Gobindgarh - PPCB",Mandi Gobindgarh,IN,o3,0.0,2020-04-06 12:45:00 UTC,µg/m³,caaqm,30.649960999999998,76.33144,0.25
UAM Iztapalapa,DISTRITO FEDERAL,MX,co,0.1,2020-04-07 19:00:00 UTC,ppm,AirNow,19.3607,-99.0738,1.0
YMCA - Marion County,Ocala,US,o3,0.05,2020-04-07 19:00:00 UTC,ppm,AirNow,29.1708,-82.1008,1.0
"Częstochowa, ul. Baczyńskiego 2",Częstochowa,PL,no2,84.8965,2020-04-07 21:00:00 UTC,µg/m³,GIOS,50.836388,19.130112,
Mojave - 923 Poole S,Bakersfield,US,o3,0.043,2020-04-07 19:00:00 UTC,ppm,AirNow,35.05045,-118.14778000000001,1.0
Houston East C1,Houston-Sugar Land-Baytown,US,pm25,29.4,2017-03-10 13:00:00 UTC,µg/m³,AirNow,29.7681,-95.2206,1.0
תחנה:אחיסמך,עמק יזרעאל,IL,no2,0.0245,2019-04-03 21:00:00 UTC,ppm,Israel,32.65363,35.41288,0.25
"Bang Sao Thong, Bang Sao Thong",Samut Prakan,TH,co,0.0,2020-04-07 20:00:00 UTC,ppm,Thailand,13.567697,100.789406,1.0
Fuxing,高雄市,TW,so2,0.0035,2020-04-07 21:00:00 UTC,ppm,Taiwan,22.608711,120.31201999999999,1.0
Lynchburg Ferry C1015/A165,Houston,US,o3,0.053,2016-03-06 19:00:00 UTC,ppm,Texas,29.761652,-95.08138000000001,1.0
ES1968A,Alicante/Alacant,ES,o3,112.0,2020-04-06 14:00:00 UTC,µg/m³,EEA Spain,38.351112,-0.5138889,1.0
Hou.DeerPrk2 C35/235/1001/AFH139FP239,Houston,US,pm10,19.0,2016-03-06 17:00:00 UTC,µg/m³,Texas,29.670025,-95.12850999999999,1.0
Cicero2,COOK,US,pm25,12.2,2020-04-07 18:00:00 UTC,µg/m³,AirNow,41.864329999999995,-87.748825,1.0
Cassino,Frosinone,IT,so2,0.6,2020-04-04 22:00:00 UTC,µg/m³,ARPALAZIO,41.49,13.830689999999999,1.0
Cailiao,North,TW,co,0.59,2020-04-07 21:00:00 UTC,ppm,Taiwan,25.06895,121.481026,1.0
Burlington,Burlington-South Burlington,US,pm25,4.3,2020-04-07 20:00:00 UTC,µg/m³,AirNow,44.4761,-73.2103,1.0
Ciechocinek,Ciechocinek,PL,bc,0.21,2020-04-07 21:00:00 UTC,µg/m³,GIOS,52.888419999999996,18.780909,
"MD University, Rohtak, Haryana - HSPCB",Rohtak,IN,o3,7.94,2018-12-28 01:30:00 UTC,µg/m³,caaqm,28.870083,76.6205,0.25
ES1664A,Cádiz,ES,co,369.0,2020-03-30 22:00:00 UTC,µg/m³,EEA Spain,36.13623,-5.45343,1.0
"Pimpleshwar Mandir, Thane - MPCB",Tiwani Chawl,IN,o3,7.16,2020-04-07 21:00:00 UTC,µg/m³,caaqm,19.192057000000002,72.95852,0.25
"Vasundhara, Ghaziabad - UPPCB",Ghaziabad,IN,pm25,33.0,2020-04-07 21:00:00 UTC,µg/m³,caaqm,28.660335999999997,77.357254,0.25
ES1860A,Sevilla,ES,co,374.0,2020-04-07 09:00:00 UTC,µg/m³,EEA Spain,37.55502,-6.03616,1.0
Leicester A594 Roadside,Leicester,GB,no2,28.0,2020-04-07 20:00:00 UTC,µg/m³,DEFRA,52.638676000000004,-1.124228,1.0
Collectorate - Gaya - BSPCB,Gaya,IN,co,680.0,2018-02-22 03:00:00 UTC,µg/m³,CPCB,24.74897,84.94384000000001,0.25
Cebeci,Ankara,TR,so2,6.0,2018-10-13 21:00:00 UTC,µg/m³,Turkey,39.936946999999996,32.878166,1.0
"Sosnowiec, ul. Lubelska 51",Sosnowiec,PL,pm10,67.9577,2020-04-07 21:00:00 UTC,µg/m³,GIOS,50.285957,19.184399,
Santa Maria - Broadw,Santa Barbara-Santa Maria,US,pm10,4.0,2020-04-07 19:00:00 UTC,µg/m³,AirNow,34.94287,-120.43561000000001,1.0
SPARTAN - Weizmann Institute,Rehovot,IL,pm25,23.4,2015-10-17 05:00:00 UTC,µg/m³,Spartan,31.906999999999996,34.81,1.0
Nelson Kutenai Place,BRITISH COLUMBIA,CA,pm10,8.0,2017-10-02 14:00:00 UTC,µg/m³,AirNow,49.4908,-117.2953,1.0
Wschowa ul. Kazimierza Wielkiego,Wschowa,PL,pm10,23.0392,2020-04-07 21:00:00 UTC,µg/m³,GIOS,51.79972,16.3175,
Ft McD Yuma Frank-AZ,Phoenix-Mesa-Scottsdale,US,o3,0.098,2020-04-07 20:00:00 UTC,ppm,AirNow,33.6292,-111.6769,1.0
Santa Fe,DISTRITO FEDERAL,MX,pm10,51.0,2020-04-07 19:00:00 UTC,µg/m³,AirNow,19.3573,-99.2628,1.0
AM17 Liniewko Kościerskie,Liniewko Kościerskie,PL,co,510.478,2019-12-30 01:00:00 UTC,µg/m³,GIOS,54.10411,18.182972,
LENOIRCOLL,Kinston,US,o3,0.053,2020-04-07 19:00:00 UTC,ppm,AirNow,35.23146,-77.568794,1.0
ES1664A,Cádiz,ES,no2,38.0,2020-04-07 09:00:00 UTC,µg/m³,EEA Spain,36.13623,-5.45343,1.0
Albemarle HS,Charlottesville,US,o3,0.049,2020-04-07 19:00:00 UTC,ppm,AirNow,38.0766,-78.50399999999999,1.0
Trimble,Kansas City,US,o3,0.038,2020-04-07 19:00:00 UTC,ppm,AirNow,39.5306,-94.556,1.0
Tongling Che Zhan Xin Qu,Tongling,CN,no2,29.0,2018-10-13 21:00:00 UTC,µg/m³,Tongling,30.9219,117.8561,1.0
Doğubeyazıt,Ağrı,TR,co,1710.0,2018-10-13 21:00:00 UTC,µg/m³,Turkey,39.5476,44.083595,1.0
CHI_SP,Chicago-Naperville-Joliet,US,pm25,15.6,2017-10-09 10:00:00 UTC,µg/m³,AirNow,41.9136,-87.7239,1.0
"Urban, Chamarajanagar - KSPCB",Chamarajanagar,IN,no2,7.36,2020-02-09 07:45:00 UTC,µg/m³,caaqm,11.55358,76.55521,0.25
KS Hawaii,HAWAII,US,so2,0.005,2020-04-07 19:00:00 UTC,ppm,AirNow,19.611916,-155.05504,1.0
Houston Monroe C406,Houston,US,so2,-0.0004,2016-03-06 19:00:00 UTC,ppm,Texas,29.625557,-95.26722,1.0
"Civil Line, Jalandhar - PPCB",Jalandhar,IN,pm25,23.17,2020-04-07 21:00:00 UTC,µg/m³,caaqm,31.321907,75.57891,0.25
Haukenes,Grenland,NO,o3,60.6,2020-04-07 18:00:00 UTC,µg/m³,Norway,59.2024,9.48708,1.0
Redwood City,San Francisco-Oakland-Fremont,US,no2,0.002,2020-04-07 19:00:00 UTC,ppm,AirNow,37.4828,-122.2022,1.0
Saratoga BAM,CARBON,US,pm25,4.0,2019-12-04 18:00:00 UTC,µg/m³,AirNow,41.452133,-106.81393,1.0
CORNER,Birmingham-Hoover,US,o3,0.031,2020-04-07 20:00:00 UTC,ppm,AirNow,33.8017,-86.9425,1.0
Estación San Juanico,GUANAJUATO,MX,so2,0.01,2020-04-07 20:00:00 UTC,ppm,AirNow,20.537682999999998,-100.83994,1.0
Mt Vernon-S 2nd St,Mount Vernon-Anacortes,US,pm25,1.3,2020-04-07 19:00:00 UTC,µg/m³,AirNow,48.4102,-122.3376,1.0
Fort Collins - West,Fort Collins-Loveland,US,o3,0.055999999999999994,2020-04-07 19:00:00 UTC,ppm,AirNow,40.59254,-105.1411,1.0
Bahçelievler,Ankara,TR,so2,6.0,2018-09-27 19:00:00 UTC,µg/m³,Turkey,39.918324,32.822906,1.0
Copper View,Salt Lake City,US,no2,0.006999999999999999,2020-04-07 16:00:00 UTC,ppm,AirNow,40.598057,-111.89416499999999,1.0
Tashkent,,UZ,pm25,21.0,2020-04-07 20:00:00 UTC,µg/m³,AirNow,41.3672,69.2725,1.0
Magong,Taiwan,TW,co,0.12,2020-04-07 21:00:00 UTC,ppm,Taiwan,23.569029999999998,119.566154,1.0
STILWELL CASTNET & N,ADAIR,US,so2,0.001,2020-04-07 20:00:00 UTC,ppm,AirNow,35.7506,-94.6697,1.0
Nipomo RP,San Luis Obispo-Paso Robles,US,pm10,5.0,2020-04-07 19:00:00 UTC,µg/m³,AirNow,35.0315,-120.50101000000001,1.0
Dunn Center,DUNN,US,o3,0.033,2018-06-19 17:00:00 UTC,ppm,AirNow,47.3203,-102.5264,1.0
Xalostoc,MEXICO STATE,MX,o3,0.005,2019-10-27 05:00:00 UTC,ppm,AirNow,19.5259,-99.0824,1.0
"Pak Nam Pho, Mueang",Nakhon Sawan,TH,no2,0.002,2020-04-07 20:00:00 UTC,ppm,Thailand,15.707849,100.13193000000001,1.0
Houston Deer Park C3,Houston-Sugar Land-Baytown,US,pm25,5.8,2019-12-06 20:00:00 UTC,µg/m³,AirNow,29.670025,-95.12850999999999,1.0
Douliu,Yun-Chia-Nan,TW,co,0.26,2020-04-07 21:00:00 UTC,ppm,Taiwan,23.711853,120.54498999999998,1.0
Laramie Mobile,Laramie,US,so2,0.0,2018-04-04 15:00:00 UTC,ppm,AirNow,41.30283,-105.586,1.0
ES1742A,Las Palmas,ES,so2,4.0,2020-04-06 15:00:00 UTC,µg/m³,EEA Spain,27.772598,-15.541881,1.0
"Plammoodu, Thiruvananthapuram - Kerala PCB",KERALA STATE POLLUTION CONTROL BOARD,IN,pm10,43.0,2020-04-07 21:00:00 UTC,µg/m³,caaqm,8.51491,76.94359,0.25
Pico Rivera,LOS ANGELES,US,co,0.28,2020-04-07 20:00:00 UTC,ppm,AirNow,34.010284000000006,-118.06848000000001,1.0
West Los Angeles - V,Los Angeles-Long Beach-Santa Ana,US,o3,0.039,2020-04-07 20:00:00 UTC,ppm,AirNow,34.051097999999996,-118.45638000000001,1.0
"Mahape, Navi Mumbai - MPCB",Maharashtra Pollution Control Board,IN,pm25,33.0,2020-04-07 17:45:00 UTC,µg/m³,caaqm,19.113504000000002,73.00898000000001,0.25
Loddefjord,Bergen,NO,pm25,5.916508,2020-04-07 20:00:00 UTC,µg/m³,Norway,60.361134,5.23686,1.0
KPN,Granica,PL,no2,21.3,2017-01-08 08:00:00 UTC,µg/m³,Poland,52.28586,20.455555,1.0
Lunbei,Yun-Chia-Nan,TW,so2,0.0016,2020-04-07 21:00:00 UTC,ppm,Taiwan,23.757547,120.34873999999999,1.0
Bakersfield - Califo,Bakersfield,US,pm25,3.0,2020-04-07 19:00:00 UTC,µg/m³,AirNow,35.356613,-119.062614,1.0
AM8 Gdańsk Wrzeszcz,Gdańsk,PL,no2,10.6552,2020-04-07 20:00:00 UTC,µg/m³,GIOS,54.380280000000006,18.620274,
Mojacar,Mojacar,ES,so2,4.0,2018-10-12 22:00:00 UTC,µg/m³,Andalucia,37.138798,-1.8422096999999997,24.0
Karşıyaka,Ordu,TR,so2,2.0,2018-10-13 21:00:00 UTC,µg/m³,Turkey,40.97398,37.907677,1.0
Eliza Howell Downwin,WAYNE,US,o3,0.023,2018-02-26 04:00:00 UTC,ppm,AirNow,42.386803,-83.27064,1.0
Huainan Jiao Gang Hu Feng Jing Qu Guan Li Chu,Huainan,CN,co,536.0,2018-10-13 21:00:00 UTC,µg/m³,Huainan,32.625,116.7039,1.0
תחנה:חולון,שרון,IL,no2,0.0292,2019-04-03 21:00:00 UTC,ppm,Israel,32.44732,34.91173,0.25
Şehzade,Amasya,TR,no2,50.0,2018-10-13 21:00:00 UTC,µg/m³,Turkey,40.657222999999995,35.837959999999995,1.0
K-Koźle automat 1,Kędzierzyn-Koźle,PL,so2,8.729989999999999,2020-04-07 21:00:00 UTC,µg/m³,GIOS,50.34961,18.236573999999997,
TracyAP,Stockton,US,no2,0.002,2020-04-07 19:00:00 UTC,ppm,AirNow,37.6825,-121.4406,1.0
תחנה:מודיעין,חיפה וקריות,IL,o3,0.0453,2017-09-02 21:00:00 UTC,ppm,Israel,32.851820000000004,35.07873,0.25
SLV Middle School AM,Santa Cruz-Watsonville,US,pm25,1.0,2020-04-01 15:00:00 UTC,µg/m³,AirNow,37.06315,-122.08308999999998,1.0
Los Angeles - N. Mai,Los Angeles-Long Beach-Santa Ana,US,so2,0.0,2020-04-07 20:00:00 UTC,ppm,AirNow,34.06643,-118.22675,1.0
FugueiCape,新北市,TW,so2,0.0002,2020-04-07 21:00:00 UTC,ppm,Taiwan,25.297435999999998,121.53797,1.0
London Harlington,London,GB,o3,86.0,2020-04-07 20:00:00 UTC,µg/m³,DEFRA,51.48879,-0.441614,8.0
Glendale Community C,Phoenix-Mesa-Scottsdale,US,pm10,2.0,2020-04-07 19:00:00 UTC,µg/m³,AirNow,33.5694,-112.1915,1.0
Uludağ Üniv.-MTHM,Bursa,TR,so2,0.0,2018-10-13 20:00:00 UTC,µg/m³,Turkey,40.22337,28.871540000000003,1.0
תחנה:לוט,חיפה וקריות,IL,no2,0.008,2019-04-03 21:00:00 UTC,ppm,Israel,32.78685,35.02026,0.25
"Lumpyngngad, Shillong - Meghalaya PCB",Shillong,IN,so2,0.0,2020-04-04 18:00:00 UTC,µg/m³,caaqm,25.5586,91.8985,0.25
Great Basin NP,WHITE PINE,US,o3,0.04,2020-04-07 18:00:00 UTC,ppm,AirNow,39.0053,-114.2158,1.0
Lądek-Zdrój,Lądek-Zdrój,PL,o3,56.0676,2018-12-31 09:00:00 UTC,µg/m³,GIOS,50.341865999999996,16.889898000000002,
Ardhali Bazar,Varanasi,IN,pm25,288.0,2018-02-22 03:00:00 UTC,µg/m³,CPCB,25.350555,82.97833,0.25
ES1822A,Cádiz,ES,o3,0.0,2019-12-24 17:00:00 UTC,µg/m³,EEA Spain,36.79449,-5.531619999999999,1.0
STILWELL CASTNET & N,ADAIR,US,co,0.27,2020-04-07 20:00:00 UTC,ppm,AirNow,35.7506,-94.6697,1.0
TROUT LAKE,VILAS,US,pm25,4.4,2020-04-07 20:00:00 UTC,µg/m³,AirNow,46.0481,-89.6536,1.0
London Westminster,London,GB,no2,47.0,2020-04-07 20:00:00 UTC,µg/m³,DEFRA,51.49467,-0.131931,1.0
"Opp GPO Civil Lines, Nagpur - MPCB",Nagpur,IN,pm25,16.98,2020-04-07 11:00:00 UTC,µg/m³,caaqm,21.152876000000003,79.05175,0.25
E3: Colegio Carteya,San Roque,ES,no2,48.0,2018-10-12 19:20:00 UTC,µg/m³,Andalucia,36.20879,-5.3913817,1.0
"Częstochowa, ul. Baczyńskiego 2",Częstochowa,PL,co,1216.78,2020-04-07 21:00:00 UTC,µg/m³,GIOS,50.836388,19.130112,
Fl. Baptist Children,Lakeland,US,o3,0.052000000000000005,2020-04-07 19:00:00 UTC,ppm,AirNow,28.0294,-81.9719,1.0
Warszawa-Komunikacyjna,Warszawa,PL,co,793.0,2020-04-07 20:00:00 UTC,µg/m³,GIOS,52.2193,21.004725,
Davidsonville,Baltimore-Towson,US,o3,0.035,2016-03-25 12:00:00 UTC,ppm,AirNow,38.9025,-76.6531,1.0
75. Yıl,Karabük,TR,co,-584.0,2018-04-02 22:00:00 UTC,µg/m³,Turkey,41.196636,32.621708,1.0
"Sector-51, Gurugram - HSPCB",Gurugram,IN,pm25,20.16,2020-04-07 20:45:00 UTC,µg/m³,caaqm,28.4227,77.0667,0.25
Lemmon Valley,Reno-Sparks,US,co,0.9,2017-01-19 16:00:00 UTC,ppm,AirNow,39.645286999999996,-119.84005,1.0
ES0873A,Las Palmas,ES,pm25,8.0,2020-04-06 15:00:00 UTC,µg/m³,EEA Spain,28.035120000000003,-15.416310000000001,1.0
Hani i Elezit,Hani i Elezit,XK,pm10,14.524000000000001,2020-04-07 21:00:00 UTC,µg/m³,Kosovo,42.15396,21.29601,1.0
Montoursville,Williamsport,US,o3,0.049,2020-04-07 20:00:00 UTC,ppm,AirNow,41.2508,-76.9239,1.0
Casper Gaseous,Casper,US,pm25,1.0,2020-04-07 20:00:00 UTC,µg/m³,AirNow,42.822309999999995,-106.36501000000001,1.0
Egbert,ONTARIO,CA,o3,0.049,2020-04-07 20:00:00 UTC,ppm,AirNow,44.2325,-79.7814,1.0
תחנה:לוזית,ירושלים,IL,o3,0.0116,2019-04-03 21:00:00 UTC,ppm,Israel,31.75709,35.21741,0.25
Burlington,Burlington-South Burlington,US,co,0.3,2020-04-07 20:00:00 UTC,ppm,AirNow,44.4761,-73.2103,1.0
Universidad Autonoma,BAJA CALIFORNIA NORTE,MX,pm25,10.0,2018-04-20 15:00:00 UTC,µg/m³,AirNow,32.6292,-115.4469,1.0
Körfez-MTHM,Kocaeli,TR,pm10,51.0,2018-10-13 20:00:00 UTC,µg/m³,Turkey,40.74604,29.7888,1.0
E5: Palmones,Barrios (Los),ES,so2,6.0,2018-10-12 21:30:00 UTC,µg/m³,Andalucia,36.174706,-5.4327674,24.0
ES1425A,Sevilla,ES,pm10,16.1,2018-01-27 00:00:00 UTC,µg/m³,EEA Spain,37.37525,-6.00558,1.0
"Alandur Bus Depot, Chennai - CPCB",MKN Rd,IN,no2,7.01,2020-04-07 21:00:00 UTC,µg/m³,caaqm,12.909916,80.10765,0.25
NO. BHAM,Birmingham-Hoover,US,o3,0.027000000000000003,2020-04-07 20:00:00 UTC,ppm,AirNow,33.5531,-86.815,1.0
Cuautitilán,MEXICO STATE,MX,so2,0.008,2020-04-07 19:00:00 UTC,ppm,AirNow,19.7221,-99.1986,1.0
תחנה:צ.הנגב,מישור החוף הדרומי,IL,o3,0.0578,2019-04-03 21:00:00 UTC,ppm,Israel,31.527959999999997,34.60161,0.25
Essex,Baltimore-Towson,US,no2,0.01,2020-04-07 20:00:00 UTC,ppm,AirNow,39.310833,-76.47444,1.0
Üsküdar-MTHM,İstanbul,TR,pm10,34.0,2018-10-13 20:00:00 UTC,µg/m³,Turkey,41.02705,29.024890000000003,1.0
BVILLE,Kingsport-Bristol-Bristol,US,o3,0.049,2020-04-07 19:00:00 UTC,ppm,AirNow,36.5408,-82.4258,1.0
SAB-RAME - Sabaneta - I.E. Rafael J. Mejía,Sabaneta,CO,pm25,9.87578,2020-04-07 21:00:00 UTC,µg/m³,Medellin,6.1433334,-75.62028000000001,1.0
ES0557A,Cádiz,ES,no2,2.0,2020-04-07 09:00:00 UTC,µg/m³,EEA Spain,36.186209999999996,-5.380809999999999,1.0
"Zoo Park, Hyderabad - TSPCB",Hyderabad,IN,pm25,50.0,2020-04-02 22:15:00 UTC,µg/m³,caaqm,17.349693,78.45144,0.25
Toruń Airpointer,Toruń,PL,so2,4.7934,2020-04-07 21:00:00 UTC,µg/m³,GIOS,53.01226,18.606203,
"Phra Bat, Mueang",Lampang,TH,o3,0.039,2020-04-07 20:00:00 UTC,ppm,Thailand,18.286776,99.50632,1.0
Yellow Springs,Dayton,US,pm25,19.2,2019-01-04 14:00:00 UTC,µg/m³,AirNow,39.80834,-83.88710999999999,1.0
Fengyuan,臺中市,TW,pm25,6.0,2020-04-07 21:00:00 UTC,µg/m³,Taiwan,24.256586,120.74171399999999,1.0
Poznan-Polanka,Poznań,PL,co,408.5,2020-04-07 21:00:00 UTC,µg/m³,GIOS,52.398174,16.959518,
Bengbu Bai Huo Da Lou,Bengbu,CN,pm10,54.0,2018-10-13 21:00:00 UTC,µg/m³,Bengbu,32.9444,117.3575,1.0
Wrocław - Wiśniowa,Wrocław,PL,pm25,27.9189,2020-04-07 20:00:00 UTC,µg/m³,GIOS,51.086224,17.01269,
Holbrook,GREENE,US,pm25,3.5,2020-04-07 20:00:00 UTC,µg/m³,AirNow,39.82,-80.2897,1.0
ES1865A,Las Palmas,ES,o3,53.0,2020-04-06 16:00:00 UTC,µg/m³,EEA Spain,28.500256,-13.852395000000001,1.0
Hospital General de,DISTRITO FEDERAL,MX,co,0.7,2020-04-07 19:00:00 UTC,ppm,AirNow,19.4116,-99.1522,1.0
"Sanathnagar, Hyderabad - TSPCB",Hyderabad,IN,so2,20.4,2020-04-07 13:15:00 UTC,µg/m³,caaqm,17.455946,78.43321,0.25
Olesno automat 4,Olesno,PL,pm10,67.9515,2020-04-07 21:00:00 UTC,µg/m³,GIOS,50.876984,18.416878,
"Rv 4, Aker sykehus",Oslo,NO,pm25,6.174695,2020-04-07 20:00:00 UTC,µg/m³,Norway,59.941030000000005,10.79803,1.0
"Lalbagh, DN Park",Lucknow,IN,no2,109.32,2018-02-22 04:00:00 UTC,µg/m³,CPCB,26.845786999999998,80.93874,0.25
DAYTON,NOVA SCOTIA,CA,o3,0.028999999999999998,2018-04-23 15:00:00 UTC,ppm,AirNow,43.8333,-66.0833,1.0
Jackson Mobile,Jackson,US,no2,0.002,2019-10-07 21:00:00 UTC,ppm,AirNow,43.48256,-110.74526000000002,1.0
Gwinnett Tech,Atlanta-Sandy Springs-Marietta,US,pm25,11.7,2020-04-05 23:00:00 UTC,µg/m³,AirNow,33.9636,-84.0664,1.0
"Kraków, Aleja Krasińskiego",Kraków,PL,co,763.49,2020-04-07 21:00:00 UTC,µg/m³,GIOS,50.05768,19.92619,
ES1925A,Cádiz,ES,so2,3.0,2020-04-07 09:00:00 UTC,µg/m³,EEA Spain,36.1801,-5.3825,1.0
RUTLAND,Rutland,US,so2,0.0,2020-04-07 20:00:00 UTC,ppm,AirNow,43.60853,-72.98246,1.0
Blackpool Marton,Blackpool,GB,pm25,9.0,2020-04-07 20:00:00 UTC,µg/m³,DEFRA,53.80489,-3.007175,24.0
Shreveport Airport,Shreveport-Bossier City,US,o3,0.026000000000000002,2020-04-07 20:00:00 UTC,ppm,AirNow,32.5364,-93.7492,1.0
"Na Chak, Mueang",Phrae,TH,pm10,87.0,2020-04-07 19:00:00 UTC,µg/m³,Thailand,18.12614,100.1654,24.0
Cebeci,Ankara,TR,co,0.0,2018-10-13 21:00:00 UTC,µg/m³,Turkey,39.936946999999996,32.878166,1.0
Cornwall,Torrington,US,so2,0.0,2020-04-07 20:00:00 UTC,ppm,AirNow,41.8331,-73.3033,1.0
TROUT LAKE,VILAS,US,o3,0.032,2020-04-07 20:00:00 UTC,ppm,AirNow,46.0481,-89.6536,1.0
Millville,Vineland-Millville-Bridgeton,US,o3,0.052000000000000005,2020-04-07 19:00:00 UTC,ppm,AirNow,39.422270000000005,-75.0252,1.0
ES1677A,Alicante/Alacant,ES,so2,3.0,2020-04-06 14:00:00 UTC,µg/m³,EEA Spain,38.084720000000004,-0.8527778,1.0
Kandilli-MTHM,İstanbul,TR,co,170.0,2018-10-13 20:00:00 UTC,µg/m³,Turkey,41.0746,29.05899,1.0
UAM Iztapalapa,DISTRITO FEDERAL,MX,pm25,28.0,2020-04-07 19:00:00 UTC,µg/m³,AirNow,19.3607,-99.0738,1.0
Villa Ada,Roma,IT,so2,0.4,2020-04-04 22:00:00 UTC,µg/m³,ARPALAZIO,41.932873,12.506971,1.0
AM12 Kościerzyna Targowa,Kościerzyna,PL,co,755.039,2019-12-30 01:00:00 UTC,µg/m³,GIOS,54.120693,17.97586,
ES1067A,Huelva,ES,so2,9.0,2020-03-30 10:00:00 UTC,µg/m³,EEA Spain,37.21925,-6.88858,1.0
Włocławek OKRZEI,Włocławek,PL,pm25,10.7,2020-04-07 21:00:00 UTC,µg/m³,GIOS,52.658466000000004,19.059314999999998,
Nicks Lake,Utica-Rome,US,o3,0.006999999999999999,2020-01-03 14:00:00 UTC,ppm,AirNow,43.6856,-74.9864,1.0
Gaziemir,İzmir,TR,so2,40.0,2018-10-13 21:00:00 UTC,µg/m³,Turkey,38.314312,27.13403,1.0
Poznań - RatajeMOB,Poznań,PL,no2,6.3080099999999995,2020-04-07 21:00:00 UTC,µg/m³,GIOS,52.391727,16.998576999999997,
Patterson Park,Akron,US,o3,0.042,2020-04-07 20:00:00 UTC,ppm,AirNow,41.106487,-81.50355,1.0
LOUDONMS,Knoxville,US,pm25,14.0,2020-04-07 19:00:00 UTC,µg/m³,AirNow,35.7197,-84.3417,1.0
St Regis Mohawk-NY,Malone,US,pm25,31.2,2019-09-05 17:00:00 UTC,µg/m³,AirNow,44.9806,-74.6953,1.0
San Bernadino - 4th,Riverside-San Bernardino-Ontario,US,pm10,5.0,2020-04-07 20:00:00 UTC,µg/m³,AirNow,34.106678,-117.27406,1.0
ES1654A,Sevilla,ES,o3,66.0,2020-04-07 09:00:00 UTC,µg/m³,EEA Spain,37.99435,-5.666869999999999,1.0
SAULT STE MARIE,Sault Ste. Marie,US,o3,0.035,2018-10-13 20:00:00 UTC,ppm,AirNow,46.49361,-84.3642,1.0
Roseburg - Garden Va,Roseburg,US,pm25,3.6,2020-04-07 20:00:00 UTC,µg/m³,AirNow,43.2266,-123.36478999999999,1.0
Gainesville,Gainesville,US,pm25,16.9,2020-04-07 20:00:00 UTC,µg/m³,AirNow,34.3003,-83.8139,1.0
Paonia,DELTA,US,no2,0.001,2020-04-07 20:00:00 UTC,ppm,AirNow,38.8763,-107.6022,1.0
Arenula,Roma,IT,pm10,19.0,2020-04-03 22:00:00 UTC,µg/m³,ARPALAZIO,41.894020000000005,12.475368,24.0
Cheyenne NCore,Cheyenne,US,no2,0.0,2020-04-07 20:00:00 UTC,ppm,AirNow,41.18222,-104.778336,1.0
Ojai - Ojai Ave.,Oxnard-Thousand Oaks-Ventura,US,o3,0.042,2020-04-07 20:00:00 UTC,ppm,AirNow,34.4483,-119.2303,1.0
Dhahran,,SA,pm25,31.0,2020-04-07 20:00:00 UTC,µg/m³,AirNow,26.276861,50.147232,1.0
Waco C1037,Waco,US,pm25,6.3,2020-04-07 20:00:00 UTC,µg/m³,AirNow,31.6531,-97.0706,1.0
Grajewo - mobilne ,Grajewo,PL,pm25,13.6,2020-04-07 21:00:00 UTC,µg/m³,GIOS,53.639793000000004,22.470274,
PASCAGOULA,Pascagoula,US,o3,0.034,2020-04-07 20:00:00 UTC,ppm,AirNow,30.3775,-88.5339,1.0
"Khlong Chan, Bang kapi",Bangkok,TH,pm10,21.0,2020-04-07 20:00:00 UTC,µg/m³,Thailand,13.78152,100.63655,24.0
Demetevler,Ankara,TR,pm10,55.0,2018-04-17 19:00:00 UTC,µg/m³,Turkey,39.96774,32.79567,1.0
"Fort William, Kolkata - WBPCB",WEST BENGAL POLLUTION CONTROL BOARD,IN,pm25,26.02,2020-04-07 17:45:00 UTC,µg/m³,caaqm,22.556639999999998,88.342674,0.25
Bournemouth,Bournemouth,GB,o3,93.0,2020-04-07 20:00:00 UTC,µg/m³,DEFRA,50.73957,-1.826744,8.0
CASTLE ST. SAINT JO,NEW BRUNSWICK,CA,pm25,3.0,2020-04-07 19:00:00 UTC,µg/m³,AirNow,45.2803,-66.0561,1.0
Welby - 78th Ave. &,Denver-Aurora,US,so2,0.0,2020-04-07 19:00:00 UTC,ppm,AirNow,39.8392,-104.9489,1.0
"Tirumala, Tirupati - APPCB",Tirupati,IN,co,460.0,2020-04-07 21:00:00 UTC,µg/m³,caaqm,13.67,79.35,0.25
Blue Ridge I-70,Kansas City,US,no2,0.006999999999999999,2020-04-07 19:00:00 UTC,ppm,AirNow,39.047913,-94.45051600000001,1.0
ES1620A,Cádiz,ES,o3,76.0,2020-04-07 09:00:00 UTC,µg/m³,EEA Spain,36.66086,-6.11449,1.0
Joussard,ALBERTA,CA,o3,0.052000000000000005,2020-04-07 20:00:00 UTC,ppm,AirNow,55.340366,-115.89567,1.0
Matalasca�as,Almonte,ES,so2,2.0,2018-10-12 22:00:00 UTC,µg/m³,Andalucia,37.0161,-6.570420299999999,24.0
Pocono,East Stroudsburg,US,pm25,3.0,2018-04-06 10:00:00 UTC,µg/m³,AirNow,41.0831,-75.3283,1.0
Hefei Lu Yang Qu,Hefei,CN,no2,50.0,2018-10-13 21:00:00 UTC,µg/m³,Hefei,31.9438,117.266,1.0
"Noen Phra, Mueang",Rayong,TH,pm10,35.0,2020-04-07 20:00:00 UTC,µg/m³,Thailand,12.705355,101.18184000000001,24.0
Radakovo,Zenica,BA,so2,113.0,2018-10-13 21:00:00 UTC,µg/m³,Bosnia2,44.195,17.932000000000002,1.0
Fuyang Fu Yang Zhi Ye Ji Zhu Xue Yuan,Fuyang,CN,pm25,39.0,2018-10-13 21:00:00 UTC,µg/m³,Fuyang,32.88922,115.78388999999999,1.0
Whistler Meadow Park,BRITISH COLUMBIA,CA,pm25,4.0,2020-04-07 19:00:00 UTC,µg/m³,AirNow,50.1439,-122.9611,1.0
OWENPRI,Owensboro,US,pm25,9.3,2020-04-07 19:00:00 UTC,µg/m³,AirNow,37.7808,-87.0756,1.0
St.Croix,Fredrikstad,NO,pm25,4.6,2020-04-04 16:00:00 UTC,µg/m³,Norway,59.2103,10.9454,1.0
Campbell County,Gillette,US,pm10,8.0,2018-05-14 19:00:00 UTC,µg/m³,AirNow,44.1472,-105.5303,1.0
"Hebbal, Bengaluru - KSPCB",Opp.: CBI Office,IN,co,570.0,2020-04-07 21:00:00 UTC,µg/m³,caaqm,13.029152,77.5859,0.25
Alibeyköy,İstanbul,TR,o3,89.0,2018-06-06 15:00:00 UTC,µg/m³,Turkey,41.05767,28.945683000000002,1.0
תחנה:א.ת. עטרות,איזור יהודה,IL,so2,0.0022,2019-04-03 21:00:00 UTC,ppm,Israel,31.06917,35.39764,0.25
Nashua - Gilson Rd.,Manchester-Nashua,US,o3,0.049,2020-04-07 20:00:00 UTC,ppm,AirNow,42.718655,-71.52241500000001,1.0
ES1677A,Alicante/Alacant,ES,co,100.0,2020-04-06 14:00:00 UTC,µg/m³,EEA Spain,38.084720000000004,-0.8527778,1.0
תחנה:יד רמבם 2,צפון,IL,no2,0.0131,2019-04-03 21:00:00 UTC,ppm,Israel,32.88966,35.09703,0.25
WIOŚ Biskupiec-Mobilna,Biskupiec,PL,pm25,27.4225,2020-04-07 21:00:00 UTC,µg/m³,GIOS,53.860703,20.957891,
Tolgoit,Ulaanbaatar,MN,pm10,92.0,2019-03-13 22:30:00 UTC,µg/m³,Agaar.mn,47.922497,106.79481000000001,
Amgalan,Ulaanbaatar,MN,no2,33.0,2019-03-13 22:30:00 UTC,µg/m³,Agaar.mn,47.91343,106.99791,
Bory Tucholskie,Zielonka,PL,bc,1.01,2020-04-07 21:00:00 UTC,µg/m³,GIOS,53.662117,17.934017,
SAN MARTIN DE PORRES,Lima,PE,so2,11.22,2018-10-13 20:00:00 UTC,µg/m³,Senamhi,-12.008889,-77.08447,1.0
Look Rock - GSMNP,Knoxville,US,co,0.18,2020-04-07 19:00:00 UTC,ppm,AirNow,35.6322,-83.9422,1.0
Przemysl-Grunwaldzka-WIOS,Przemyśl,PL,so2,8.46072,2020-04-07 21:00:00 UTC,µg/m³,GIOS,49.78434,22.756239,
תחנה:צ.הנגב,מישור החוף הדרומי,IL,no2,0.0222,2019-04-03 21:00:00 UTC,ppm,Israel,31.527959999999997,34.60161,0.25
תחנה:כ.חסידים,שרון,IL,so2,0.0018,2019-04-03 21:00:00 UTC,ppm,Israel,32.372609999999995,34.97679,0.25
"BTM Layout, Bengaluru - KSPCB",Bengaluru,IN,o3,15.57,2018-02-22 03:00:00 UTC,µg/m³,CPCB,12.912811,77.60922,0.25
Paw Park,Sarasota-Bradenton-Venice,US,pm10,9.0,2020-04-07 19:00:00 UTC,µg/m³,AirNow,27.3503,-82.4797,1.0
Lab Annex,MIAMI - DADE,US,co,0.2,2020-04-07 19:00:00 UTC,ppm,AirNow,25.798332000000002,-80.21028000000001,1.0
"Ghusuri, Howrah - WBPCB",Howrah,IN,pm25,20.3,2020-04-07 20:45:00 UTC,µg/m³,caaqm,22.611967,88.34742,0.25
FVIEW,Nashville-Davidson--Murfreesboro,US,o3,0.046,2020-04-07 19:00:00 UTC,ppm,AirNow,35.9514,-87.1375,1.0
El Paso UTEP C12,El Paso,US,o3,0.044000000000000004,2020-04-07 20:00:00 UTC,ppm,AirNow,31.768057000000002,-106.50111399999999,1.0
ES1745A,Las Palmas,ES,pm10,21.0,2019-04-11 00:00:00 UTC,µg/m³,EEA Spain,27.897638,-15.445028,1.0
"Central School, Lucknow - CPCB",Sector 9,IN,pm25,13.72,2020-04-07 20:45:00 UTC,µg/m³,caaqm,26.882101000000002,80.930275,0.25
Mt Hall,BOUNDARY,US,pm25,4.4,2020-04-07 13:00:00 UTC,µg/m³,AirNow,48.894012,-116.35942,1.0
"Marhatal, Jabalpur - MPPCB",Jabalpur,IN,pm25,66.0,2020-04-07 18:00:00 UTC,µg/m³,caaqm,23.168606,79.93224000000001,0.25
תחנה:כפר סבא,שרון,IL,no2,0.0161,2019-04-03 21:00:00 UTC,ppm,Israel,32.177124,34.935726,0.25
Maslak,İstanbul,TR,pm10,37.0,2018-05-10 20:00:00 UTC,µg/m³,Turkey,41.101315,29.024492,1.0
Neah Bay 2-Makah Tri,Port Angeles,US,pm25,3.1,2020-04-07 19:00:00 UTC,µg/m³,AirNow,48.36606,-124.61005,1.0
Bukhiin urguu,Ulaanbaatar,MN,o3,8.0,2019-03-13 22:00:00 UTC,µg/m³,Agaar.mn,47.917606,106.93736000000001,
Casper Mobile,Casper,US,so2,0.001,2018-01-24 17:00:00 UTC,ppm,AirNow,42.8463,-106.27767,1.0
"Na Phra Lan, Chaloem Phra Kiat",Saraburi,TH,no2,0.009000000000000001,2020-04-07 20:00:00 UTC,ppm,Thailand,14.683085,100.87514,1.0
ES1971A,Córdoba,ES,o3,61.0,2020-04-07 09:00:00 UTC,µg/m³,EEA Spain,38.13793,-4.903969999999999,1.0
Nogales Post Office,Nogales,US,pm25,5.0,2020-04-07 20:00:00 UTC,µg/m³,AirNow,31.337203999999996,-110.93672,1.0
ALLEN PARK,Detroit-Warren-Livonia,US,pm25,10.2,2020-04-07 20:00:00 UTC,µg/m³,AirNow,42.2283,-83.2092,1.0
"Sector-25, Chandigarh - CPCC",Chandigarh,IN,pm25,0.0,2020-04-07 18:00:00 UTC,µg/m³,caaqm,30.751463,76.76288000000001,0.25
ES1573A,Las Palmas,ES,o3,43.0,2020-04-06 07:00:00 UTC,µg/m³,EEA Spain,28.133732000000002,-15.432823,1.0
"Bollaram Industrial Area, Hyderabad - TSPCB",Hyderabad,IN,o3,26.2,2020-04-07 21:00:00 UTC,µg/m³,caaqm,17.540892000000003,78.35853,0.25
JAMES S. LONG PARK,Washington-Arlington-Alexandria,US,no2,0.003,2020-04-07 19:00:00 UTC,ppm,AirNow,38.8553,-77.6356,1.0
"Rv 4, Aker sykehus",Oslo,NO,pm10,31.362454999999997,2020-04-07 20:00:00 UTC,µg/m³,Norway,59.941030000000005,10.79803,1.0
Glasgow High Street,Glasgow,GB,pm10,13.0,2020-04-07 20:00:00 UTC,µg/m³,DEFRA,55.860935,-4.238214,24.0
Alamo Lake,LA PAZ,US,o3,0.043,2020-04-07 20:00:00 UTC,ppm,AirNow,34.24389,-113.55861000000002,1.0
MMCA81033,CA8 - ARB,US,pm25,0.0,2020-04-07 20:00:00 UTC,µg/m³,AirNow,38.560898,-121.50709499999999,1.0
תחנה:אגן כימיקלים,צפון,IL,so2,0.0002,2019-04-03 21:00:00 UTC,ppm,Israel,32.91575,35.29302,0.25
Northwest Harris Co.,Houston-Sugar Land-Baytown,US,o3,0.031,2020-04-07 20:00:00 UTC,ppm,AirNow,30.0394,-95.6739,1.0
Geronimo,Tucson,US,pm25,-2.0,2020-04-07 20:00:00 UTC,µg/m³,AirNow,32.25,-110.9667,1.0
"Chong Nonsi, Yannawa",Bangkok,TH,co,0.59,2020-03-30 09:00:00 UTC,ppm,Thailand,13.708041,100.54735,1.0
Gilory - 9th Street,San Jose-Sunnyvale-Santa Clara,US,pm25,3.0,2020-04-07 19:00:00 UTC,µg/m³,AirNow,36.999573,-121.574684,1.0
Zielona Góra ul. Krótka,Zielona Góra,PL,pm10,19.2079,2020-04-07 20:00:00 UTC,µg/m³,GIOS,51.93978,15.518861,
BEL-USBV - Universidad San Buenaventura,Medellin,CO,no2,-9999.0,2020-04-07 21:00:00 UTC,ppm,Medellin,6.330697,-75.56867,1.0
Colusa - Sunrise Blv,COLUSA,US,o3,0.037000000000000005,2020-04-07 19:00:00 UTC,ppm,AirNow,39.18919,-121.99887,1.0
ES1821A,Cádiz,ES,co,72.0,2020-04-07 09:00:00 UTC,µg/m³,EEA Spain,36.73975,-5.74372,1.0
Mesa - Brooks Reserv,Phoenix-Mesa-Scottsdale,US,co,0.3,2020-04-07 19:00:00 UTC,ppm,AirNow,33.4105,-111.8651,1.0
Shalu,Central,TW,o3,0.04,2020-04-07 21:00:00 UTC,ppm,Taiwan,24.225628,120.568794,1.0
Peckville,Scranton--Wilkes-Barre,US,o3,0.046,2020-04-07 20:00:00 UTC,ppm,AirNow,41.4789,-75.5781,1.0
"Manali Village, Chennai - TNPCB",Government School,IN,o3,102.69,2020-04-07 18:00:00 UTC,µg/m³,caaqm,11.258244,77.55243,0.25
Sentrum,Narvik,NO,pm25,2.8636169999999996,2020-04-07 20:00:00 UTC,µg/m³,Norway,68.43539399999999,17.424889999999998,1.0
Jacobs,HUMBOLDT,US,pm10,12.0,2020-04-07 20:00:00 UTC,µg/m³,AirNow,40.776943,-124.1775,1.0
Wrocław - Korzeniowskiego,Wrocław,PL,pm10,59.2398,2020-04-07 21:00:00 UTC,µg/m³,GIOS,51.12938,17.02925,
Columbus - Fairgroun,Columbus,US,pm25,5.0,2018-10-22 13:00:00 UTC,µg/m³,AirNow,40.002734999999994,-82.99441,1.0
Keşan-MTHM,Edirne,TR,no2,13.0,2018-10-13 20:00:00 UTC,µg/m³,Turkey,40.851209999999995,26.63529,1.0
MMCA81010,CA8 - ARB,US,pm25,-1.0,2020-03-09 21:00:00 UTC,µg/m³,AirNow,40.735386,-122.22828999999999,1.0
WIOŚ Ełk,Ełk,PL,bc,0.27198,2019-12-31 22:00:00 UTC,µg/m³,GIOS,53.82845699999999,22.34845,
HOUSTON,RANDOLPH,US,pm25,9.1,2020-04-07 19:00:00 UTC,µg/m³,AirNow,38.1761,-89.7883,1.0
Swansea Roadside,Swansea,GB,no2,13.0,2020-04-07 20:00:00 UTC,µg/m³,DEFRA,51.632694,-3.947374,1.0
San Jose - Knox Ave,San Jose-Sunnyvale-Santa Clara,US,pm25,3.0,2020-04-07 19:00:00 UTC,µg/m³,AirNow,37.338203,-121.84988999999999,1.0
Sincan,Ankara,TR,pm10,36.0,2018-10-13 21:00:00 UTC,µg/m³,Turkey,39.972034,32.585167,1.0
Zgorzelec - Bohaterów Getta,Zgorzelec,PL,no2,7.398910000000001,2019-12-31 22:00:00 UTC,µg/m³,GIOS,51.15039,15.008175,
Hansjordnesbukta,Tromsø,NO,no2,5.586962000000001,2020-04-07 20:00:00 UTC,µg/m³,Norway,69.65625,18.963720000000002,1.0
E Providence,Providence-New Bedford-Fall River,US,co,14.66,2020-04-07 15:00:00 UTC,ppm,AirNow,41.8403,-71.3617,1.0
"Lajpat Nagar, Moradabad - UPPCB",Moradabad,IN,o3,0.0,2020-02-12 10:00:00 UTC,µg/m³,caaqm,28.82534,78.7213,0.25
Derry,Derry,GB,pm25,8.0,2016-03-02 22:00:00 UTC,µg/m³,DEFRA,55.001225,-7.329115,24.0
"Gole Bazar, Katni - MPPCB",Katni,IN,so2,7.9,2020-04-07 18:00:00 UTC,µg/m³,caaqm,23.50016,80.23284,0.25
Phoenix JLG Supersit,Phoenix-Mesa-Scottsdale,US,pm25,1.0,2020-04-07 20:00:00 UTC,µg/m³,AirNow,33.5036,-112.095,1.0
"Kariavattom, Thiruvananthapuram - Kerala PCB",Thiruvananthapuram,IN,o3,40.18,2020-04-07 18:30:00 UTC,µg/m³,caaqm,8.5637,76.8865,0.25
Skyland DRR,Asheville,US,so2,0.001,2020-04-07 19:00:00 UTC,ppm,AirNow,35.48186,-82.509865,1.0
"Din Daeng, Din Daeng",Bangkok,TH,pm10,30.0,2020-03-26 02:00:00 UTC,µg/m³,Thailand,13.775373000000002,100.56893000000001,24.0
San Fernando,San Fernando,CL,no2,21.0,2018-10-12 21:50:00 UTC,µg/m³,Andalucia,-34.57976,-70.989685,1.0
Ciudad Deportiva,Armilla,ES,no2,31.0,2018-10-12 22:00:00 UTC,µg/m³,Andalucia,37.13556,-3.6192527,1.0
ES1638A,Sevilla,ES,o3,40.0,2020-04-07 09:00:00 UTC,µg/m³,EEA Spain,37.347190000000005,-5.97963,1.0
Swansea Roadside,Swansea,GB,pm25,9.0,2020-03-20 02:00:00 UTC,µg/m³,DEFRA,51.632694,-3.947374,24.0
Diablo,Phoenix-Mesa-Scottsdale,US,co,1.1,2020-01-13 12:00:00 UTC,ppm,AirNow,33.3961,-111.96799999999999,1.0
Jaslo-Sikorskiego-WIOS,Jasło,PL,pm10,58.2911,2020-04-07 20:00:00 UTC,µg/m³,GIOS,49.744884000000006,21.454617000000002,
ES0822A,Huelva,ES,so2,0.0,2020-04-07 06:00:00 UTC,µg/m³,EEA Spain,37.27964,-6.93807,1.0
Chelan-Woodin Ave,CHELAN,US,pm25,4.0,2020-04-07 19:00:00 UTC,µg/m³,AirNow,47.838609999999996,-120.02306000000002,1.0
Sverresgate,Grenland,NO,pm10,34.98,2020-04-07 20:00:00 UTC,µg/m³,Norway,59.138119999999994,9.65212,1.0
"Phase-1 GIDC, Vapi - GPCB",Center of Excellence (WTP side garden,IN,so2,4.7,2020-04-07 01:15:00 UTC,µg/m³,caaqm,20.362420999999998,72.918015,0.25
Furulund,Grenland,NO,pm25,4.26925,2020-04-07 20:00:00 UTC,µg/m³,Norway,59.057304,9.695568,1.0
"Lalbagh, Lucknow - CPCB",Lucknow,IN,o3,42.84,2020-04-07 20:45:00 UTC,µg/m³,caaqm,26.845879999999998,80.936554,0.25
Welby - 78th Ave. &,Denver-Aurora,US,o3,0.055999999999999994,2020-04-07 19:00:00 UTC,ppm,AirNow,39.8392,-104.9489,1.0
Szczecin_Piłsudskiego,Szczecin,PL,bc,0.8377100000000001,2018-12-31 22:00:00 UTC,µg/m³,GIOS,53.43216999999999,14.5539,
Gartnerløkka,Kristiansand,NO,no2,38.05455,2020-01-13 12:00:00 UTC,µg/m³,Norway,58.14703000000001,7.986619999999999,1.0
Tamsui,North,TW,no2,0.0028,2020-04-07 21:00:00 UTC,ppm,Taiwan,25.1645,121.44923999999999,1.0
Mount Pearl,NEWFOUNDLAND,CA,pm25,6.0,2020-04-07 19:00:00 UTC,µg/m³,AirNow,47.505,-52.7947,1.0
MMCA81024,CA8 - ARB,US,pm25,7.8,2020-02-20 21:00:00 UTC,µg/m³,AirNow,38.56125,-121.509,1.0
Konsul Wilds vei,Kristiansand,NO,so2,-0.8225950000000001,2020-04-07 20:00:00 UTC,µg/m³,Norway,58.12929499999999,7.972886,1.0
Karl Eriksens plass,Ålesund,NO,pm10,17.05,2020-04-07 20:00:00 UTC,µg/m³,Norway,62.470622999999996,6.153501,1.0
Riverside - Rubidoux,Riverside-San Bernardino-Ontario,US,co,0.14,2020-04-07 20:00:00 UTC,ppm,AirNow,33.99945,-117.41583,1.0
Toruń Airpointer,Toruń,PL,no2,1.7217,2020-04-07 21:00:00 UTC,µg/m³,GIOS,53.01226,18.606203,
Hidden Valley,PINAL,US,pm10,16.0,2020-04-07 19:00:00 UTC,µg/m³,AirNow,32.88476,-112.03705,1.0
Radakovo,Zenica,BA,co,292.0,2018-10-13 21:00:00 UTC,µg/m³,Bosnia2,44.195,17.932000000000002,1.0
Bankplassen,Lillehammer,NO,pm25,9.1,2020-04-07 20:00:00 UTC,µg/m³,Norway,61.112880000000004,10.46497,1.0
"Indirapuram, Ghaziabad - UPPCB",Ghaziabad,IN,no2,17.7,2020-04-07 19:00:00 UTC,µg/m³,caaqm,28.646233000000002,77.35808,0.25
Allentown,Allentown-Bethlehem-Easton,US,pm25,7.0,2020-04-07 20:00:00 UTC,µg/m³,AirNow,40.6119,-75.4325,1.0
Moran,ALLEGANY,US,so2,0.0,2020-04-07 20:00:00 UTC,ppm,AirNow,39.4864,-79.0638,1.0
Uniontown,Pittsburgh,US,o3,0.033,2020-04-07 20:00:00 UTC,ppm,AirNow,39.917664,-79.8055,1.0
Doboj,Kakanj,BA,o3,21.0,2018-10-13 21:00:00 UTC,µg/m³,Bosnia2,44.11600000000001,18.113,1.0
Compton,Los Angeles-Long Beach-Santa Ana,US,no2,0.008,2020-04-07 20:00:00 UTC,ppm,AirNow,33.9014,-118.205,1.0
Oldtown,Baltimore-Towson,US,no2,0.008,2020-04-07 20:00:00 UTC,ppm,AirNow,39.2981,-76.6047,1.0
"Ward-32 Bapupara, Siliguri - WBPCB",Siliguri,IN,pm10,123.8,2020-04-07 20:45:00 UTC,µg/m³,caaqm,26.688305,88.41266999999999,0.25
"Palayam, Kozhikode - Kerala PCB",Kozhikode,IN,so2,2.68,2020-04-07 18:45:00 UTC,µg/m³,caaqm,11.249077,75.78437,0.25
Cuautitilán,MEXICO STATE,MX,no2,0.008,2020-04-07 19:00:00 UTC,ppm,AirNow,19.7221,-99.1986,1.0
ES1648A,Cádiz,ES,o3,75.0,2020-04-07 09:00:00 UTC,µg/m³,EEA Spain,36.23386,-5.6635,1.0
Jefferson-Laatsch,JEFFERSON,US,o3,0.044000000000000004,2020-04-07 20:00:00 UTC,ppm,AirNow,43.0034,-88.8283,1.0
"Urban, Chamarajanagar - KSPCB",Chamarajanagar,IN,pm10,30.21,2020-02-09 07:45:00 UTC,µg/m³,caaqm,11.55358,76.55521,0.25
תחנה:רכבת יוספטל,עמק יזרעאל,IL,co,0.0,2019-04-03 21:00:00 UTC,ppm,Israel,32.619170000000004,35.35412,0.25
Hefei Yao Hai Qu,Hefei,CN,pm10,81.0,2018-10-13 21:00:00 UTC,µg/m³,Hefei,31.8585,117.336,1.0
Silverton,MARION,US,pm25,10.8,2019-10-10 16:00:00 UTC,µg/m³,AirNow,45.015,-122.79038,1.0
GBUAPCD EBAM @ Coso,GBU,US,pm25,20.0,2017-07-19 16:00:00 UTC,µg/m³,AirNow,36.049403999999996,-117.94383,1.0
FAB,PHILADELPHIA,US,pm25,10.6,2020-04-07 20:00:00 UTC,µg/m³,AirNow,39.9603,-75.1424,1.0
Amgalan,Ulaanbaatar,MN,o3,58.0,2018-11-01 04:00:00 UTC,µg/m³,Agaar.mn,47.91343,106.99791,
WIOŚ Biskupiec-Mobilna,Biskupiec,PL,pm10,35.17,2020-04-07 21:00:00 UTC,µg/m³,GIOS,53.860703,20.957891,
Park Place C416,Houston,US,no2,0.0029,2016-03-06 19:00:00 UTC,ppm,Texas,29.686390000000003,-95.29472,1.0
Lepanto,Cordoba,ES,no2,38.0,2018-10-12 22:00:00 UTC,µg/m³,Andalucia,37.89261,-4.762338,1.0
Inverness,Inverness,GB,no2,6.0,2020-04-07 20:00:00 UTC,µg/m³,DEFRA,57.481308,-4.2414510000000005,1.0
Brist,Zenica,BA,no2,22.0,2017-10-25 21:00:00 UTC,µg/m³,Bosnia,44.202,17.8,1.0
Dysart,Phoenix-Mesa-Scottsdale,US,pm10,15.0,2020-04-07 19:00:00 UTC,µg/m³,AirNow,33.6369,-112.3394,1.0
100 ail,Ulaanbaatar,MN,co,16.0,2019-03-13 22:00:00 UTC,µg/m³,Agaar.mn,47.932907,106.92138999999999,
"Kraków, ul. Bujaka",Kraków,PL,pm25,20.1253,2019-12-31 21:00:00 UTC,µg/m³,GIOS,50.010574,19.949188,
"Phra Bat, Mueang",Lampang,TH,pm10,105.0,2020-04-07 20:00:00 UTC,µg/m³,Thailand,18.286776,99.50632,24.0
Kandilli-MTHM,İstanbul,TR,so2,15.0,2018-10-13 20:00:00 UTC,µg/m³,Turkey,41.0746,29.05899,1.0
"Sector-25, Chandigarh - CPCC",Chandigarh,IN,pm10,0.0,2020-04-07 18:00:00 UTC,µg/m³,caaqm,30.751463,76.76288000000001,0.25
"Ostrowiec Świętokrzyski, MOBILNA",Ostrowiec Świętokrzyski,PL,o3,7.11,2020-04-07 21:00:00 UTC,µg/m³,GIOS,50.946705,21.394491,
Warszawa-Ursynów,Warszawa,PL,o3,29.87,2020-04-07 20:00:00 UTC,µg/m³,GIOS,52.16077,21.033820000000002,
Hayden,GILA,US,so2,0.002,2020-04-07 20:00:00 UTC,ppm,AirNow,33.006268,-110.78648000000001,1.0
J. D. Smith,Las Vegas-Paradise,US,co,0.89,2018-01-04 13:00:00 UTC,ppm,AirNow,36.19126,-115.12293000000001,1.0
Karadeniz Ereğli,Zonguldak,TR,so2,80.0,2018-07-01 09:00:00 UTC,µg/m³,Turkey,41.276466,31.433418,1.0
Columbus - Franklin,Columbus,US,no2,0.013999999999999999,2017-12-29 09:00:00 UTC,ppm,AirNow,39.96523,-82.95549,1.0
ES2007A,Murcia,ES,no2,5.0,2020-04-06 14:00:00 UTC,µg/m³,EEA Spain,37.574444,-0.9266667,1.0
Fort Saskatchewan,ALBERTA,CA,pm25,4.0,2020-04-07 19:00:00 UTC,µg/m³,AirNow,53.6989,-113.2233,1.0
Eskdalemuir,Eskdalemuir,GB,o3,99.0,2020-04-07 20:00:00 UTC,µg/m³,DEFRA,55.31531,-3.206111,8.0
Alnabru,Oslo,NO,pm25,6.75,2020-04-07 20:00:00 UTC,µg/m³,Norway,59.927730000000004,10.84633,1.0
Bygdøy Alle,Oslo,NO,pm25,10.9,2020-04-07 20:00:00 UTC,µg/m³,Norway,59.918980000000005,10.69707,1.0
Skyland Drive,Kingsport-Bristol-Bristol,US,so2,0.0,2020-04-07 19:00:00 UTC,ppm,AirNow,36.52102,-82.516304,1.0
תחנה:יד אבנר,חיפה וקריות,IL,co,0.3,2019-04-03 21:00:00 UTC,ppm,Israel,32.769940000000005,35.04226,0.25
Seminole Community C,Orlando-Kissimmee,US,pm10,15.0,2020-03-16 12:00:00 UTC,µg/m³,AirNow,28.7456,-81.31,1.0
Doğankent,Adana,TR,no2,10.0,2018-10-13 21:00:00 UTC,µg/m³,Turkey,36.854534,35.349144,1.0
MA,Salt Lake City,US,so2,0.001,2020-01-06 18:00:00 UTC,ppm,AirNow,40.712063,-112.11112,1.0
Glasgow Townhead,Glasgow,GB,pm10,12.0,2020-04-07 20:00:00 UTC,µg/m³,DEFRA,55.865784,-4.243631,24.0
ES1921A,Murcia,ES,o3,90.0,2020-04-06 14:00:00 UTC,µg/m³,EEA Spain,37.603054,-0.9752778,1.0
Omkjøringsvegen,Trondheim,NO,pm10,17.7,2019-01-21 11:00:00 UTC,µg/m³,Norway,63.410492000000005,10.444352,1.0
Ketchum,BLAINE,US,pm25,1.0,2020-04-07 19:00:00 UTC,µg/m³,AirNow,43.682556,-114.37109,1.0
Nysa manualna 3,Nysa,PL,pm10,53.9062,2020-04-07 21:00:00 UTC,µg/m³,GIOS,50.45899,17.331905,
Galleria,Cleveland-Elyria-Mentor,US,co,0.5,2020-04-07 20:00:00 UTC,ppm,AirNow,41.50466,-81.690186,1.0
Sheldon Station,LANCASTER,US,so2,0.0,2020-04-07 20:00:00 UTC,ppm,AirNow,40.554759999999995,-96.78035,1.0
"Hebbal 1st Stage, Mysuru - KSPCB",Mysuru,IN,no2,7.42,2020-03-24 08:15:00 UTC,µg/m³,caaqm,12.210410000000001,76.37376,0.25
Houston North Waysid,Houston-Sugar Land-Baytown,US,o3,0.025,2020-04-07 20:00:00 UTC,ppm,AirNow,29.8281,-95.2842,1.0
Tongling Che Zhan Xin Qu,Tongling,CN,pm25,31.0,2018-10-13 21:00:00 UTC,µg/m³,Tongling,30.9219,117.8561,1.0
תחנה:ב.אליעזר,חיפה וקריות,IL,o3,0.0117,2019-04-03 21:00:00 UTC,ppm,Israel,32.791927,35.02111,0.25
N.-D.-du-Rosaire,QUEBEC,CA,o3,0.042,2020-03-30 00:00:00 UTC,ppm,AirNow,46.8508,-70.4528,1.0
Schancheholen,Stavanger,NO,pm25,7.578333,2020-04-07 20:00:00 UTC,µg/m³,Norway,58.951878,5.721875,1.0
Buckeye,Phoenix-Mesa-Scottsdale,US,o3,0.044000000000000004,2020-04-07 19:00:00 UTC,ppm,AirNow,33.37,-112.6207,1.0
Indio-29 Palms,,US,pm10,4.0,2020-04-07 20:00:00 UTC,µg/m³,AirNow,33.71969,-116.1897,1.0
Gwinnett Tech,Atlanta-Sandy Springs-Marietta,US,pm10,18.0,2020-04-05 23:00:00 UTC,µg/m³,AirNow,33.9636,-84.0664,1.0
Duszniki-Zdrój,Duszniki-Zdrój,PL,pm25,29.0594,2019-12-31 22:00:00 UTC,µg/m³,GIOS,50.402645,16.393318,
1001,CA8 - ARB,US,pm25,13.9,2020-03-09 15:00:00 UTC,µg/m³,AirNow,38.684364,-120.98818,1.0
Northampton,NORTHAMPTON,US,pm25,8.0,2020-04-07 19:00:00 UTC,µg/m³,AirNow,36.511707,-77.65539,1.0
Gjilan,Gjilan,XK,so2,1.3130000000000002,2020-04-07 21:00:00 UTC,µg/m³,Kosovo,42.461143,21.467201,1.0
CAMPO DE MARTE,Lima,PE,pm25,7.73,2020-04-07 21:00:00 UTC,µg/m³,Senamhi,-12.070528,-77.04316999999999,1.0
"Noen Phra, Mueang",Rayong,TH,so2,0.001,2020-04-07 20:00:00 UTC,ppm,Thailand,12.705355,101.18184000000001,1.0
"Brown University, Ro",Providence-New Bedford-Fall River,US,no2,0.013999999999999999,2018-01-11 06:00:00 UTC,ppm,AirNow,41.825558,-71.40528,1.0
Azusa,Los Angeles-Long Beach-Santa Ana,US,co,0.23,2020-04-07 20:00:00 UTC,ppm,AirNow,34.136475,-117.923965,1.0
Trona - Athol and Te,Riverside-San Bernardino-Ontario,US,o3,0.044000000000000004,2020-04-07 20:00:00 UTC,ppm,AirNow,35.774456,-117.37211,1.0
Songshan,North,TW,co,0.46,2020-04-07 21:00:00 UTC,ppm,Taiwan,25.05,121.57861000000001,1.0
Krasnobrod,Krasnobród,PL,no2,14.8,2020-04-07 20:00:00 UTC,µg/m³,GIOS,50.549296999999996,23.197317,
NCore - White Mounta,Bishop,US,o3,0.046,2020-04-07 20:00:00 UTC,ppm,AirNow,37.360703,-118.33083,1.0
"Opp GPO Civil Lines, Nagpur - MPCB",Nagpur,IN,pm10,28.91,2020-04-07 11:00:00 UTC,µg/m³,caaqm,21.152876000000003,79.05175,0.25
HOUGHTON LAKE,Cadillac,US,o3,0.031,2020-04-07 20:00:00 UTC,ppm,AirNow,44.3106,-84.8919,1.0
Boulder Reservoir,BOULDER,US,o3,0.055,2020-04-07 19:00:00 UTC,ppm,AirNow,40.070007000000004,-105.22023,1.0
NR-Georgia Tech,Atlanta-Sandy Springs-Marietta,US,no2,0.016,2020-04-07 20:00:00 UTC,ppm,AirNow,33.778316,-84.39142,1.0
Sainte-Anne-de-Belle,,CA,pm25,3.8,2020-04-07 20:00:00 UTC,µg/m³,AirNow,45.42651,-73.92895,1.0
"Połaniec, ul. Ruszczańska",Połaniec,PL,pm25,50.74,2020-04-07 21:00:00 UTC,µg/m³,GIOS,50.429012,21.277367,
Tlalnepantla,MEXICO STATE,MX,no2,0.023,2020-04-07 19:00:00 UTC,ppm,AirNow,19.529,-99.2045,1.0
ES1821A,Cádiz,ES,no2,2.0,2020-04-07 09:00:00 UTC,µg/m³,EEA Spain,36.73975,-5.74372,1.0
"Knowledge Park - V, Greater Noida - UPPCB",203,IN,co,210.0,2020-04-07 18:00:00 UTC,µg/m³,caaqm,28.557055,77.45366999999999,0.25
Flax Pond,SUFFOLK,US,o3,0.033,2019-11-04 16:00:00 UTC,ppm,AirNow,40.961014,-73.13913000000001,1.0
Huainan Yi Yi Ru Ye Gong Ye Yuan,Huainan,CN,no2,38.0,2018-10-13 21:00:00 UTC,µg/m³,Huainan,32.646004,117.04117,1.0
Huainan Jiao Gang Hu Feng Jing Qu Guan Li Chu,Huainan,CN,no2,11.0,2018-10-13 21:00:00 UTC,µg/m³,Huainan,32.625,116.7039,1.0
Natomas - Goldenland,SACRAMENTO,US,co,0.0,2017-06-01 17:00:00 UTC,ppm,AirNow,38.650715000000005,-121.50665,1.0
Woodland,Sacramento--Arden-Arcade--Roseville,US,o3,0.037000000000000005,2020-04-07 19:00:00 UTC,ppm,AirNow,38.6619,-121.7278,1.0
Szczecinek_Przemysłowa,Szczecinek,PL,bc,0.32418,2020-04-07 21:00:00 UTC,µg/m³,GIOS,53.6989,16.704573,
Ballymena Ballykeel,Ballymena,GB,so2,11.0,2020-04-07 20:00:00 UTC,µg/m³,DEFRA,54.861594999999994,-6.250873,0.25
Houston Bayland Park,Houston-Sugar Land-Baytown,US,o3,0.028999999999999998,2020-04-07 20:00:00 UTC,ppm,AirNow,29.6958,-95.4992,1.0
"Davenport, 10th & Vi",Davenport-Moline-Rock Island,US,no2,0.006,2019-01-02 18:00:00 UTC,ppm,AirNow,41.53,-90.5875,1.0
Madisonville,New Orleans-Metairie-Kenner,US,o3,0.034,2020-04-07 19:00:00 UTC,ppm,AirNow,30.4293,-90.1997,1.0
White Plains,New York-Northern New Jersey-Long Island,US,pm25,3.2,2020-04-07 19:00:00 UTC,µg/m³,AirNow,41.0522,-73.7642,1.0
İnegöl-MTHM,Bursa,TR,no2,29.0,2018-08-29 19:00:00 UTC,µg/m³,Turkey,40.080890000000004,29.50024,1.0
Columbus - Rocky For,BARTHOLOMEW,US,pm25,4.1,2016-10-27 23:00:00 UTC,µg/m³,AirNow,39.237457,-85.891335,1.0
Łódź-Gdańska 16,Łódź,PL,pm25,11.0,2019-12-27 07:00:00 UTC,µg/m³,GIOS,51.77541,19.4509,
Huainan Yi Yi Ru Ye Gong Ye Yuan,Huainan,CN,o3,38.0,2018-10-13 21:00:00 UTC,µg/m³,Huainan,32.646004,117.04117,1.0
HRM,Houston,US,no2,0.009000000000000001,2016-03-06 18:00:00 UTC,ppm,Texas,29.764788,-95.178535,1.0
Granada-norte,Granada,ES,so2,6.0,2018-10-12 22:00:00 UTC,µg/m³,Andalucia,37.196106,-3.6126595,24.0
ES1072A,Cádiz,ES,o3,79.0,2020-04-07 09:00:00 UTC,µg/m³,EEA Spain,36.15937,-5.34836,1.0
HATTIEAVEN,Winston-Salem,US,pm25,7.9,2020-04-07 20:00:00 UTC,µg/m³,AirNow,36.1106,-80.2267,1.0
BAYROAD,Mobile,US,o3,0.04,2020-04-07 16:00:00 UTC,ppm,AirNow,30.4744,-88.1411,1.0
Londonderry - Moose,ROCKINGHAM,US,co,0.1,2020-04-07 20:00:00 UTC,ppm,AirNow,42.86253,-71.38014,1.0
BEL-FEVE - Bello - I.E. Fernando Vélez,Bello,CO,pm25,1.21609,2020-04-07 21:00:00 UTC,µg/m³,Medellin,6.33755,-75.5678,1.0
Płock-Reja,Płock,PL,o3,75.39,2020-04-07 20:00:00 UTC,µg/m³,GIOS,52.550938,19.709791,
"Yamunapuram, Bulandshahr - UPPCB",F-5,IN,co,1020.0,2020-04-07 16:30:00 UTC,µg/m³,caaqm,28.406963,77.84983000000001,0.25
Hillsboro - Hare Fie,Portland-Vancouver-Beaverton,US,pm25,3.9,2020-04-07 20:00:00 UTC,µg/m³,AirNow,45.5285,-122.9724,1.0
"MED-UNNV - Medellín,  centro occidente - Universidad Nacional, sede El Volador",Medellin,CO,o3,-9999.0,2020-04-07 21:00:00 UTC,ppm,Medellin,6.2633696,-75.577,1.0
"Model Town, Patiala - PPCB",Patiala,IN,co,380.0,2020-04-07 15:15:00 UTC,µg/m³,caaqm,30.349388,76.366646,0.25
MICMAC,AROOSTOOK,US,so2,0.0,2020-04-07 20:00:00 UTC,ppm,AirNow,46.6964,-68.0331,1.0
"H.B. Colony, Bhiwani - HSPCB",Bhiwani,IN,no2,12.88,2020-04-07 19:45:00 UTC,µg/m³,caaqm,28.806223,76.14110600000001,0.25
E6-Tiller,Trondheim,NO,pm10,20.512045,2020-04-07 20:00:00 UTC,µg/m³,Norway,63.3576,10.3719,1.0
Leicester University,Leicester,GB,o3,94.0,2020-04-07 20:00:00 UTC,µg/m³,DEFRA,52.619823,-1.127311,8.0
Deschambault,QUEBEC,CA,o3,0.033,2020-04-07 19:00:00 UTC,ppm,AirNow,46.6822,-71.9678,1.0
Rockwall Heath C69,Dallas-Fort Worth-Arlington,US,o3,0.037000000000000005,2020-04-07 20:00:00 UTC,ppm,AirNow,32.9361,-96.4592,1.0
Look Rock - GSMNP,Knoxville,US,pm25,13.0,2020-04-07 19:00:00 UTC,µg/m³,AirNow,35.6322,-83.9422,1.0
Regina,SASKATCHEWAN,CA,pm10,3.0,2016-08-21 13:00:00 UTC,µg/m³,AirNow,50.45,-104.6169,1.0
"GM Office, Brajrajnagar - OSPCB",Mahanadi Coal fields  Limited,IN,co,310.0,2020-04-07 20:45:00 UTC,µg/m³,caaqm,21.800499,83.8397,0.25
Jackson NCORE,Jackson,US,o3,0.024,2020-04-07 20:00:00 UTC,ppm,AirNow,32.32911,-90.182724,1.0
McMillan Reservoir,Washington-Arlington-Alexandria,US,bc,547.37,2020-04-07 20:00:00 UTC,µg/m³,AirNow,38.92185,-77.013176,1.0
Death Valley NP,Bishop,US,o3,0.044000000000000004,2020-04-07 19:00:00 UTC,ppm,AirNow,36.5092,-116.8481,1.0
Birmingham Tyburn,Birmingham,GB,no2,20.0,2016-04-29 10:00:00 UTC,µg/m³,DEFRA,52.511722999999996,-1.830583,1.0
"Żary, ul. Szymanowskiego 8",Żary,PL,no2,6.67318,2020-04-07 21:00:00 UTC,µg/m³,GIOS,51.642654,15.127807999999998,
Soda Springs PM25,CARIBOU,US,pm25,4.2,2019-11-26 18:00:00 UTC,µg/m³,AirNow,42.65167,-111.61471999999999,1.0
Xalostoc,MEXICO STATE,MX,so2,0.001,2019-10-27 05:00:00 UTC,ppm,AirNow,19.5259,-99.0824,1.0
Kamloops Federal Bui,BRITISH COLUMBIA,CA,pm25,8.6,2020-04-07 19:00:00 UTC,µg/m³,AirNow,50.6747,-120.3339,1.0
SaneguravaHalli - KSPCB,Bengaluru,IN,no2,23.67,2018-02-21 23:45:00 UTC,µg/m³,CPCB,12.99167,77.54583000000001,0.25
Ringsakervegen,Brumunddal,NO,pm25,12.6,2020-04-07 20:00:00 UTC,µg/m³,Norway,60.88593,10.93785,1.0
"Bielsko-Biała, ul.Partyzantów",Bielsko-Biała,PL,no2,55.1388,2020-04-07 21:00:00 UTC,µg/m³,GIOS,49.802074,19.04861,
Prestebakke,Prestebakke,NO,o3,65.2,2020-04-07 20:00:00 UTC,µg/m³,Norway,58.99677,11.52769,1.0
תחנה:כפר מסריק 2,חיפה וקריות,IL,co,0.0,2019-04-03 21:00:00 UTC,ppm,Israel,32.831264000000004,35.054672,0.25
Springfield,Springfield,US,pm25,3.0,2018-04-23 15:00:00 UTC,µg/m³,AirNow,42.1086,-72.5911,1.0
Meydan,Tokat,TR,so2,5.0,2018-10-13 21:00:00 UTC,µg/m³,Turkey,40.318665,36.552105,1.0
Limanköy-MTHM,Kırklareli,TR,no2,-1.0,2018-10-13 20:00:00 UTC,µg/m³,Turkey,41.88515,28.05599,1.0
IMGW-Jarczew,Jarczew,PL,o3,79.95,2020-04-07 09:00:00 UTC,µg/m³,GIOS,51.814365,21.972376,
MILITARY PARK,WAYNE,US,no2,0.013000000000000001,2020-04-07 20:00:00 UTC,ppm,AirNow,42.312077,-83.10347,1.0
Obispado,NUEVO LEON,MX,o3,0.024,2016-11-03 19:00:00 UTC,ppm,AirNow,25.67555,-100.33833,1.0
Lubań,Lubań,PL,o3,20.605999999999998,2018-12-11 16:00:00 UTC,µg/m³,GIOS,51.118412,15.285835,
Bory Tucholskie,Zielonka,PL,co,251.0,2020-04-07 21:00:00 UTC,µg/m³,GIOS,53.662117,17.934017,
Victoria Topaz,BRITISH COLUMBIA,CA,pm25,1.0,2020-04-07 19:00:00 UTC,µg/m³,AirNow,48.4292,-123.3583,1.0
Garden,Anchorage,US,pm25,3.0,2020-04-07 20:00:00 UTC,µg/m³,AirNow,61.205859999999994,-149.8246,1.0
"Loni, Ghaziabad - UPPCB",Loni Dehat,IN,o3,38.95,2020-04-07 19:00:00 UTC,µg/m³,caaqm,28.757294,77.27879,0.25
Pinnacle Peak Club H,Phoenix-Mesa-Scottsdale,US,o3,0.047,2020-04-07 19:00:00 UTC,ppm,AirNow,33.7123,-111.8527,1.0
Carrizo,San Luis Obispo-Paso Robles,US,o3,0.04,2020-04-07 19:00:00 UTC,ppm,AirNow,35.35474,-120.04013,1.0
"RIMT University, Mandi Gobindgarh - PPCB",Mandi Gobindgarh,IN,pm25,0.0,2020-04-06 12:45:00 UTC,µg/m³,caaqm,30.649960999999998,76.33144,0.25
Soma,Manisa,TR,o3,14.0,2018-10-13 21:00:00 UTC,µg/m³,Turkey,39.181416,27.612913,1.0
Vårveien,Drammen,NO,pm25,11.1,2020-04-07 20:00:00 UTC,µg/m³,Norway,59.753616,10.144397,1.0
Atakum,Samsun,TR,no2,45.0,2018-10-13 21:00:00 UTC,µg/m³,Turkey,41.325382,36.296597,1.0
Güzelyalı İBB,İzmir,TR,pm10,35.0,2018-10-13 21:00:00 UTC,µg/m³,Turkey,38.395832,27.082779,1.0
"Rabindra Sarobar, Kolkata - WBPCB",Kolkata,IN,co,190.0,2020-04-07 17:45:00 UTC,µg/m³,caaqm,22.51106,88.35141999999999,0.25
North OKC,Oklahoma City,US,so2,0.0,2020-04-07 20:00:00 UTC,ppm,AirNow,35.6128,-97.4722,1.0
Douliu,Yun-Chia-Nan,TW,no2,0.017,2020-04-07 21:00:00 UTC,ppm,Taiwan,23.711853,120.54498999999998,1.0
AM3 Gdańsk Nowy Port,Gdańsk,PL,pm10,10.5438,2020-04-07 20:00:00 UTC,µg/m³,GIOS,54.400833,18.657497,
Lubań - Mieszka II,Lubań,PL,pm10,122.72,2020-04-07 20:00:00 UTC,µg/m³,GIOS,51.119009999999996,15.275539000000002,
Dorset,ONTARIO,CA,o3,0.048,2020-04-07 19:00:00 UTC,ppm,AirNow,45.2211,-78.9314,1.0
Palmer,ANCHORAGE,US,pm10,25.0,2019-08-06 19:00:00 UTC,µg/m³,AirNow,61.599,-149.10399999999998,1.0
"Kariavattom, Thiruvananthapuram - Kerala PCB",Thiruvananthapuram,IN,co,300.0,2020-04-07 18:30:00 UTC,µg/m³,caaqm,8.5637,76.8865,0.25
ES0926A,Córdoba,ES,no2,1.0,2020-04-07 09:00:00 UTC,µg/m³,EEA Spain,38.10814,-4.9268,1.0
DEARBORN,Detroit-Warren-Livonia,US,pm10,20.0,2020-04-07 20:00:00 UTC,µg/m³,AirNow,42.3075,-83.15,1.0
Stoke-on-Trent A50 Roadside,Stoke-on-Trent,GB,no2,69.0,2020-04-07 20:00:00 UTC,µg/m³,DEFRA,52.980433999999995,-2.111898,1.0
Chanute,NEOSHO,US,o3,0.040999999999999995,2020-04-07 20:00:00 UTC,ppm,AirNow,37.67696,-95.47594000000001,1.0
Hawthorne,Salt Lake City,US,o3,0.047,2020-04-07 19:00:00 UTC,ppm,AirNow,40.7335,-111.8717,1.0
Gajew,Gajew,PL,o3,66.4,2020-04-07 21:00:00 UTC,µg/m³,GIOS,52.14325,19.233225,
Dillon,MT1,US,pm25,2.0,2020-04-07 19:00:00 UTC,µg/m³,AirNow,45.206447999999995,-112.64251999999999,1.0
Concord,San Francisco-Oakland-Fremont,US,co,0.26,2020-04-07 19:00:00 UTC,ppm,AirNow,37.9383,-122.025,1.0
Legnica - Rzeczypospolitej,Legnica,PL,no2,21.835,2020-04-07 21:00:00 UTC,µg/m³,GIOS,51.204502000000005,16.180513,
Remount,Charlotte-Gastonia-Concord,US,pm25,10.0,2020-04-07 20:00:00 UTC,µg/m³,AirNow,35.21317,-80.874084,1.0
"Kraków, os. Wadów",Kraków,PL,pm10,40.7818,2020-04-07 20:00:00 UTC,µg/m³,GIOS,50.100570000000005,20.12256,
Punta Umbria,Punta Umbria,ES,no2,6.0,2018-10-12 22:00:00 UTC,µg/m³,Andalucia,37.18568,-6.9641366,1.0
Bekkestua,Bærum,NO,pm10,23.0,2020-04-07 20:00:00 UTC,µg/m³,Norway,59.9181,10.5839,1.0
Leonessa,Rieti,IT,o3,96.0,2020-04-04 22:00:00 UTC,µg/m³,ARPALAZIO,42.572594,12.961982,1.0
Atascadero2,San Luis Obispo-Paso Robles,US,pm10,0.0,2020-04-07 19:00:00 UTC,µg/m³,AirNow,35.494556,-120.66621,1.0
Des Sables,QUEBEC,CA,o3,0.031,2020-04-07 19:00:00 UTC,ppm,AirNow,46.8214,-71.2208,1.0
"New Industrial Town, Faridabad - HSPCB",Faridabad,IN,pm25,31.66,2020-04-02 06:15:00 UTC,µg/m³,caaqm,28.39072,77.30059,0.25
"Vikas Sadan, Gurugram - HSPCB",Gurugram,IN,so2,8.12,2020-04-07 21:00:00 UTC,µg/m³,caaqm,28.450125,77.026306,0.25
Lone Pine Paiute/Sho,Bishop,US,pm25,6.6,2019-08-13 14:00:00 UTC,µg/m³,AirNow,36.5975,-118.04,1.0
MON,PHILADELPHIA,US,co,0.63,2020-04-07 20:00:00 UTC,ppm,AirNow,39.988842,-75.20721,1.0
Hattiesburg,FORREST,US,pm25,10.5,2020-04-07 20:00:00 UTC,µg/m³,AirNow,31.322778999999997,-89.2875,1.0
Preble County,Dayton,US,pm25,6.7,2020-04-07 20:00:00 UTC,µg/m³,AirNow,39.83562,-84.72049,1.0
תחנה:ברקאי,תחנות ניידות,IL,so2,0.0006,2019-04-03 21:00:00 UTC,ppm,Israel,32.460440000000006,35.06915,0.25
Colliers Mills,New York-Northern New Jersey-Long Island,US,o3,0.048,2020-04-07 19:00:00 UTC,ppm,AirNow,40.064846,-74.44406,1.0
VIENNA,Parkersburg-Marietta-Vienna,US,o3,0.045,2020-04-07 20:00:00 UTC,ppm,AirNow,39.325,-81.5522,1.0
Clermont,Orlando-Kissimmee,US,o3,0.054000000000000006,2020-04-07 19:00:00 UTC,ppm,AirNow,28.525,-81.7231,1.0
Long Creek,Seneca,US,so2,0.0,2020-01-13 17:00:00 UTC,ppm,AirNow,34.805,-83.2375,1.0
Marine on St. Croix,Minneapolis-St. Paul-Bloomington,US,o3,0.03,2020-04-07 20:00:00 UTC,ppm,AirNow,45.168,-92.7651,1.0
Collectorate Jodhpur - RSPCB,Jodhpur,IN,so2,4.81,2018-02-22 03:45:00 UTC,µg/m³,CPCB,26.292065,73.03791,0.25
ES1658A,Huelva,ES,pm10,9.9,2018-01-27 00:00:00 UTC,µg/m³,EEA Spain,37.27148,-6.92462,1.0
"Moti Doongri, Alwar - RSPCB",Alwar - Jaipur Rd,IN,pm25,17.57,2020-04-07 21:00:00 UTC,µg/m³,caaqm,27.554792,76.61153399999999,0.25
ES1915A,Alicante/Alacant,ES,no2,1.0,2020-04-06 14:00:00 UTC,µg/m³,EEA Spain,38.34028,-0.50666666,1.0
Estación Seguridad P,GUANAJUATO,MX,pm10,62.0,2020-04-03 16:00:00 UTC,µg/m³,AirNow,20.518316,-100.81591,1.0
Polanczyk-mobilna,Polańczyk,PL,pm10,30.0354,2020-04-07 21:00:00 UTC,µg/m³,GIOS,49.374207,22.439453,
Grand Canyon ozone b,COCONINO,US,pm25,-1.9,2020-04-07 19:00:00 UTC,µg/m³,AirNow,36.060444,-112.107025,1.0
Toll,Reno-Sparks,US,co,0.2,2017-01-18 20:00:00 UTC,ppm,AirNow,39.399837,-119.73961000000001,1.0
Swiftwater,East Stroudsburg,US,o3,0.055,2020-04-07 20:00:00 UTC,ppm,AirNow,41.0831,-75.3283,1.0
FES Aragon,MEXICO STATE,MX,pm25,13.0,2020-04-07 19:00:00 UTC,µg/m³,AirNow,19.4525,-99.086,1.0
London Hillingdon,London,GB,o3,69.0,2020-04-07 20:00:00 UTC,µg/m³,DEFRA,51.49633,-0.46086099999999997,8.0
Crockett,MORGAN,US,o3,0.047,2020-04-07 19:00:00 UTC,ppm,AirNow,37.9214,-83.0662,1.0
Yeniköy-MTHM,Kocaeli,TR,no2,25.0,2018-10-13 20:00:00 UTC,µg/m³,Turkey,40.70417,29.88448,1.0
"Sikulpuikawn, Aizawl - Mizoram PCB",Aizawl,IN,o3,11.74,2020-04-07 20:45:00 UTC,µg/m³,caaqm,23.717634,92.719284,0.25
ES0823A,Huelva,ES,pm10,16.49,2020-04-07 09:00:00 UTC,µg/m³,EEA Spain,37.18568,-6.9641399999999996,1.0
"Lat Phrao Rd., Wang Thonglang",Bangkok,TH,o3,0.002,2019-08-02 01:00:00 UTC,ppm,Thailand,13.792635,100.59608,1.0
ES2040A,Almería,ES,so2,3.0,2020-04-07 09:00:00 UTC,µg/m³,EEA Spain,37.1388,-1.8422,1.0
Black Hawk,Rapid City,US,o3,0.046,2020-04-07 20:00:00 UTC,ppm,AirNow,44.155636,-103.315765,1.0
COLOMA,Niles-Benton Harbor,US,o3,0.052000000000000005,2020-04-07 20:00:00 UTC,ppm,AirNow,42.1978,-86.3097,1.0
"Ghusuri, Howrah - WBPCB",Howrah,IN,pm10,55.5,2020-04-07 20:45:00 UTC,µg/m³,caaqm,22.611967,88.34742,0.25
Wschowa ul. Kazimierza Wielkiego,Wschowa,PL,so2,8.138119999999999,2020-04-07 21:00:00 UTC,µg/m³,GIOS,51.79972,16.3175,
Skøyen,Oslo,NO,pm10,21.0,2020-04-07 20:00:00 UTC,µg/m³,Norway,59.91975,10.68973,1.0
Hefei Ming Zhu Guang Chang,Hefei,CN,no2,72.0,2018-10-13 21:00:00 UTC,µg/m³,Hefei,31.7848,117.196,1.0
"Belur Math, Howrah - WBPCB",West Bengal Pollution Control Board,IN,co,300.0,2020-04-07 12:30:00 UTC,µg/m³,caaqm,22.6298,88.35202,0.25
J. D. Smith,Las Vegas-Paradise,US,pm10,37.0,2018-01-04 13:00:00 UTC,µg/m³,AirNow,36.19126,-115.12293000000001,1.0
Winnipeg_Ellens,MANITOBA,CA,pm25,5.5,2019-10-31 21:00:00 UTC,µg/m³,AirNow,49.9489,-97.3964,1.0
Cedar Bluff,TREGO,US,so2,0.0,2020-04-07 20:00:00 UTC,ppm,AirNow,38.7703,-99.7636,1.0
תחנה:ניר ישראל,שפלה פנימית,IL,o3,0.0099,2019-04-03 21:00:00 UTC,ppm,Israel,31.89912,34.81562,0.25
La Presa,MEXICO STATE,MX,so2,0.003,2020-04-07 19:00:00 UTC,ppm,AirNow,19.5347,-99.1177,1.0
ES1781A,Cádiz,ES,no2,11.0,2020-04-07 09:00:00 UTC,µg/m³,EEA Spain,36.68855,-6.11724,1.0
Eren Enerji Santral,Zonguldak,TR,so2,8.0,2018-02-24 11:00:00 UTC,µg/m³,Turkey,41.5106,31.89651,1.0
AM4 Gdynia Pogórze,Gdynia,PL,no2,6.25358,2020-04-07 20:00:00 UTC,µg/m³,GIOS,54.560837,18.493332000000002,
"Chikkaballapur Rural, Chikkaballapur - KSPCB",Chikkaballapur,IN,no2,9.6,2020-04-07 21:00:00 UTC,µg/m³,caaqm,13.428828,77.731415,0.25
Banqiao,North,TW,co,0.3,2020-04-07 21:00:00 UTC,ppm,Taiwan,25.012972,121.45866399999998,1.0
Ozanlar-MTHM,Sakarya,TR,o3,47.0,2018-10-13 20:00:00 UTC,µg/m³,Turkey,40.79072,30.39692,1.0
WIOŚ Ostróda Piłsudskiego,Ostróda,PL,co,385.916,2020-04-07 21:00:00 UTC,µg/m³,GIOS,53.694630000000004,19.968891,
Cuajimalpa,DISTRITO FEDERAL,MX,o3,0.085,2020-04-07 19:00:00 UTC,ppm,AirNow,19.3653,-99.2917,1.0
Austin Northwest C3,Austin-Round Rock,US,o3,0.012,2020-02-18 13:00:00 UTC,ppm,AirNow,30.3542,-97.76,1.0
Şile-MTHM,İstanbul,TR,pm10,32.0,2018-10-13 20:00:00 UTC,µg/m³,Turkey,41.17046,29.56336,1.0
Campo dell'Oro,Civitavecchia,IT,pm10,18.0,2020-03-30 22:00:00 UTC,µg/m³,ARPALAZIO,42.081825,11.809336,24.0
"Belur Math, Howrah - WBPCB",West Bengal Pollution Control Board,IN,no2,17.1,2020-04-07 12:30:00 UTC,µg/m³,caaqm,22.6298,88.35202,0.25
DANIA_BEACH,Miami-Fort Lauderdale-Miami Beach,US,o3,0.038,2020-04-07 20:00:00 UTC,ppm,AirNow,26.0864,-80.1114,1.0
